{"DESCRIPTION":{"CNTNTS_AREA":"지자체","CNTNTS_AREA2":"시군","CNTNTS_SN":"번호","CNTNTS_TITLE":"업소명","TOBIZ_NM":"업종명","CNTNTS_ADRES":"소재지도로명주소","CNTNTS_ADRES2":"소재지지번주소","CNTNTS_TELNO":"연락처","CNTNTS_MENU":"주요메뉴","REPRSNT_PERSON_NM":"대표자명","CNTNTS_PRKPLCE_AT":"주차장보유여부","PAY_METHD":"결제방법","CNTNTS_URL":"홈페이지주소","CNTNTS_TXT":"주변관광정보","LAT":"경도(WGS84좌표)","LNG":"위도(WGS84좌표)","CNTNTS_UPDE":"데이터기준일자"},"DATA":[{"CNTNTS_AREA":"강원","CNTNTS_AREA2":"고성군","CNTNTS_SN":"1618","CNTNTS_TITLE":"향우촌","TOBIZ_NM":"","CNTNTS_ADRES":"강원도 고성군 죽왕면 향목리 1-3","CNTNTS_ADRES2":"","CNTNTS_TELNO":"033-681-0600","CNTNTS_MENU":"등심, 채끝살, 안심, 안창살, 갈비","REPRSNT_PERSON_NM":"","CNTNTS_PRKPLCE_AT":"N","PAY_METHD":"","CNTNTS_URL":"","CNTNTS_TXT":"","LAT":"38.3802305","LNG":"128.4985107","CNTNTS_UPDE":"2012-03-28 22:02:11.0"},{"CNTNTS_AREA":"강원","CNTNTS_AREA2":"고성군","CNTNTS_SN":"1621","CNTNTS_TITLE":"금화정막국수","TOBIZ_NM":"","CNTNTS_ADRES":"강원도 고성군 토성면 화원길 42-21","CNTNTS_ADRES2":"","CNTNTS_TELNO":"033-632-5466","CNTNTS_MENU":"막국수, 수육, 메밀부침","REPRSNT_PERSON_NM":"","CNTNTS_PRKPLCE_AT":"N","PAY_METHD":"","CNTNTS_URL":"","CNTNTS_TXT":"","LAT":"38.2858311","LNG":"128.5439197","CNTNTS_UPDE":"2012-03-28 22:02:11.0"},{"CNTNTS_AREA":"강원","CNTNTS_AREA2":"고성군","CNTNTS_SN":"1556","CNTNTS_TITLE":"삼원퓨전횟집","TOBIZ_NM":"","CNTNTS_ADRES":"강원도 고성군 죽왕면 가향길 2-10","CNTNTS_ADRES2":"","CNTNTS_TELNO":"033-681-9572","CNTNTS_MENU":"활어회, 물회","REPRSNT_PERSON_NM":"","CNTNTS_PRKPLCE_AT":"Y","PAY_METHD":"","CNTNTS_URL":"","CNTNTS_TXT":"","LAT":"38.3751112","LNG":"128.5061138","CNTNTS_UPDE":"2012-03-28 22:02:11.0"},{"CNTNTS_AREA":"강원","CNTNTS_AREA2":"고성군","CNTNTS_SN":"1557","CNTNTS_TITLE":"유리성횟집","TOBIZ_NM":"","CNTNTS_ADRES":"강원도 고성군 토성면 토성로 56","CNTNTS_ADRES2":"","CNTNTS_TELNO":"033-631-2624","CNTNTS_MENU":"활어회, 물회","REPRSNT_PERSON_NM":"","CNTNTS_PRKPLCE_AT":"Y","PAY_METHD":"","CNTNTS_URL":"","CNTNTS_TXT":"","LAT":"38.2508447","LNG":"128.566499","CNTNTS_UPDE":"2012-03-28 22:02:11.0"},{"CNTNTS_AREA":"강원","CNTNTS_AREA2":"고성군","CNTNTS_SN":"1559","CNTNTS_TITLE":"화진포횟집","TOBIZ_NM":"","CNTNTS_ADRES":"강원도 고성군 현내면 대진항길 69","CNTNTS_ADRES2":"","CNTNTS_TELNO":"033-682-7789","CNTNTS_MENU":"활어회, 물회","REPRSNT_PERSON_NM":"","CNTNTS_PRKPLCE_AT":"Y","PAY_METHD":"","CNTNTS_URL":"","CNTNTS_TXT":"","LAT":"38.4977729","LNG":"128.4264629","CNTNTS_UPDE":"2012-03-28 22:02:11.0"},{"CNTNTS_AREA":"강원","CNTNTS_AREA2":"고성군","CNTNTS_SN":"1562","CNTNTS_TITLE":"회공원","TOBIZ_NM":"","CNTNTS_ADRES":"강원도 고성군 죽왕면 가진해변길 28","CNTNTS_ADRES2":"","CNTNTS_TELNO":"033-638-1107","CNTNTS_MENU":"물회 1인분 12000원, 초밥 1인분 10000원","REPRSNT_PERSON_NM":"","CNTNTS_PRKPLCE_AT":"Y","PAY_METHD":"","CNTNTS_URL":"","CNTNTS_TXT":"","LAT":"38.3734015","LNG":"128.5054129","CNTNTS_UPDE":"2012-03-28 22:02:11.0"},{"CNTNTS_AREA":"강원","CNTNTS_AREA2":"고성군","CNTNTS_SN":"1563","CNTNTS_TITLE":"바다추억","TOBIZ_NM":"","CNTNTS_ADRES":"강원도 고성군 죽왕면 가향길 2-7","CNTNTS_ADRES2":"","CNTNTS_TELNO":"033-681-0604","CNTNTS_MENU":"활어회, 물회","REPRSNT_PERSON_NM":"","CNTNTS_PRKPLCE_AT":"Y","PAY_METHD":"","CNTNTS_URL":"","CNTNTS_TXT":"","LAT":"38.3752085","LNG":"128.5056853","CNTNTS_UPDE":"2012-03-28 22:02:11.0"},{"CNTNTS_AREA":"강원","CNTNTS_AREA2":"고성군","CNTNTS_SN":"1565","CNTNTS_TITLE":"광범이네횟집","TOBIZ_NM":"","CNTNTS_ADRES":"강원도 고성군 죽왕면 가진해변길 114","CNTNTS_ADRES2":"","CNTNTS_TELNO":"033-682-3665","CNTNTS_MENU":"활어회, 물회","REPRSNT_PERSON_NM":"","CNTNTS_PRKPLCE_AT":"Y","PAY_METHD":"","CNTNTS_URL":"","CNTNTS_TXT":"","LAT":"38.3690881","LNG":"128.5095061","CNTNTS_UPDE":"2012-03-28 22:02:11.0"},{"CNTNTS_AREA":"강원","CNTNTS_AREA2":"고성군","CNTNTS_SN":"1568","CNTNTS_TITLE":"미시령가든","TOBIZ_NM":"","CNTNTS_ADRES":"강원도 고성군 토성면 고성대로 47-7","CNTNTS_ADRES2":"","CNTNTS_TELNO":"033-635-8788","CNTNTS_MENU":"한우등심 35,000원 \/ 양념갈비 27,000원 \/ 물냉면 7,000원","REPRSNT_PERSON_NM":"","CNTNTS_PRKPLCE_AT":"N","PAY_METHD":"","CNTNTS_URL":"","CNTNTS_TXT":"","LAT":"38.2070982","LNG":"128.5076933","CNTNTS_UPDE":"2012-03-28 22:02:11.0"},{"CNTNTS_AREA":"강원","CNTNTS_AREA2":"고성군","CNTNTS_SN":"1570","CNTNTS_TITLE":"산호찜식당","TOBIZ_NM":"","CNTNTS_ADRES":"강원도 고성군 토성면 토성로 43","CNTNTS_ADRES2":"","CNTNTS_TELNO":"033-631-5967","CNTNTS_MENU":"해물탕","REPRSNT_PERSON_NM":"","CNTNTS_PRKPLCE_AT":"Y","PAY_METHD":"","CNTNTS_URL":"","CNTNTS_TXT":"","LAT":"38.2513603","LNG":"128.5662756","CNTNTS_UPDE":"2012-03-28 22:02:11.0"},{"CNTNTS_AREA":"강원","CNTNTS_AREA2":"고성군","CNTNTS_SN":"1573","CNTNTS_TITLE":"성진식당","TOBIZ_NM":"","CNTNTS_ADRES":"강원도 고성군 거진읍 거탄진로 99","CNTNTS_ADRES2":"","CNTNTS_TELNO":"033-682-1040","CNTNTS_MENU":"생태찌개, 도루묵찌개, 도치알탕","REPRSNT_PERSON_NM":"","CNTNTS_PRKPLCE_AT":"Y","PAY_METHD":"","CNTNTS_URL":"","CNTNTS_TXT":"","LAT":"38.4440436","LNG":"128.4532758","CNTNTS_UPDE":"2012-03-28 22:02:11.0"},{"CNTNTS_AREA":"강원","CNTNTS_AREA2":"고성군","CNTNTS_SN":"1575","CNTNTS_TITLE":"제비호식당","TOBIZ_NM":"","CNTNTS_ADRES":"강원도 고성군 거진읍 거진리 287-215","CNTNTS_ADRES2":"","CNTNTS_TELNO":"033-682-1970","CNTNTS_MENU":"생태찌개, 도루묵찌개, 물곰, 명태지리","REPRSNT_PERSON_NM":"","CNTNTS_PRKPLCE_AT":"Y","PAY_METHD":"","CNTNTS_URL":"","CNTNTS_TXT":"","LAT":"38.4456297","LNG":"128.4533934","CNTNTS_UPDE":"2012-03-28 22:02:11.0"},{"CNTNTS_AREA":"강원","CNTNTS_AREA2":"고성군","CNTNTS_SN":"1577","CNTNTS_TITLE":"청우가든","TOBIZ_NM":"","CNTNTS_ADRES":"강원도 고성군 간성읍 남천마루3길 10-7","CNTNTS_ADRES2":"","CNTNTS_TELNO":"033-681-4411","CNTNTS_MENU":"고성한우 생갈비,고성한우 등심","REPRSNT_PERSON_NM":"","CNTNTS_PRKPLCE_AT":"Y","PAY_METHD":"","CNTNTS_URL":"","CNTNTS_TXT":"","LAT":"38.3786914","LNG":"128.4784537","CNTNTS_UPDE":"2012-03-28 22:02:11.0"},{"CNTNTS_AREA":"강원","CNTNTS_AREA2":"고성군","CNTNTS_SN":"1588","CNTNTS_TITLE":"가진항회센터","TOBIZ_NM":"","CNTNTS_ADRES":"강원도 고성군 죽왕면 가진해변길 123","CNTNTS_ADRES2":"","CNTNTS_TELNO":"033-680-33","CNTNTS_MENU":"자연산물회","REPRSNT_PERSON_NM":"","CNTNTS_PRKPLCE_AT":"N","PAY_METHD":"","CNTNTS_URL":"","CNTNTS_TXT":"","LAT":"38.3673833","LNG":"128.5099828","CNTNTS_UPDE":"2012-03-28 22:02:11.0"},{"CNTNTS_AREA":"강원","CNTNTS_AREA2":"고성군","CNTNTS_SN":"1591","CNTNTS_TITLE":"영동횟집","TOBIZ_NM":"","CNTNTS_ADRES":"강원도 고성군 현내면 대진항길 91","CNTNTS_ADRES2":"","CNTNTS_TELNO":"033-682-3455","CNTNTS_MENU":"활어회, 물회","REPRSNT_PERSON_NM":"","CNTNTS_PRKPLCE_AT":"Y","PAY_METHD":"","CNTNTS_URL":"","CNTNTS_TXT":"","LAT":"38.4991111","LNG":"128.4251283","CNTNTS_UPDE":"2012-03-28 22:02:11.0"},{"CNTNTS_AREA":"강원","CNTNTS_AREA2":"고성군","CNTNTS_SN":"1593","CNTNTS_TITLE":"해양활어횟집","TOBIZ_NM":"","CNTNTS_ADRES":"강원도 고성군 토성면 아야진해변길 137","CNTNTS_ADRES2":"","CNTNTS_TELNO":"033-631-7620","CNTNTS_MENU":"활어회","REPRSNT_PERSON_NM":"","CNTNTS_PRKPLCE_AT":"Y","PAY_METHD":"","CNTNTS_URL":"","CNTNTS_TXT":"","LAT":"38.2745232","LNG":"128.5547191","CNTNTS_UPDE":"2012-03-28 22:02:11.0"},{"CNTNTS_AREA":"강원","CNTNTS_AREA2":"고성군","CNTNTS_SN":"1595","CNTNTS_TITLE":"금강산횟집","TOBIZ_NM":"","CNTNTS_ADRES":"강원도 고성군 현내면 대진항길 85","CNTNTS_ADRES2":"","CNTNTS_TELNO":"033-682-7899","CNTNTS_MENU":"활어회, 물회","REPRSNT_PERSON_NM":"","CNTNTS_PRKPLCE_AT":"Y","PAY_METHD":"","CNTNTS_URL":"","CNTNTS_TXT":"","LAT":"38.4987053","LNG":"128.4257359","CNTNTS_UPDE":"2012-03-28 22:02:11.0"},{"CNTNTS_AREA":"강원","CNTNTS_AREA2":"고성군","CNTNTS_SN":"1605","CNTNTS_TITLE":"금강산도식후경횟집","TOBIZ_NM":"","CNTNTS_ADRES":"강원도 고성군 죽왕면 공현진해변길 95","CNTNTS_ADRES2":"","CNTNTS_TELNO":"033) 633-8866","CNTNTS_MENU":"생선회, 생선매운탕, 물회","REPRSNT_PERSON_NM":"","CNTNTS_PRKPLCE_AT":"N","PAY_METHD":"","CNTNTS_URL":"","CNTNTS_TXT":"","LAT":"38.3562077","LNG":"128.5098323","CNTNTS_UPDE":"2012-03-28 22:02:11.0"},{"CNTNTS_AREA":"강원","CNTNTS_AREA2":"고성군","CNTNTS_SN":"1607","CNTNTS_TITLE":"동루골막국수","TOBIZ_NM":"","CNTNTS_ADRES":"강원도 고성군 토성면 동루골길 3-11","CNTNTS_ADRES2":"","CNTNTS_TELNO":"033-632-4328","CNTNTS_MENU":"막국수, 토종닭","REPRSNT_PERSON_NM":"","CNTNTS_PRKPLCE_AT":"N","PAY_METHD":"","CNTNTS_URL":"","CNTNTS_TXT":"","LAT":"38.2554161","LNG":"128.5084794","CNTNTS_UPDE":"2012-03-28 22:02:11.0"},{"CNTNTS_AREA":"강원","CNTNTS_AREA2":"고성군","CNTNTS_SN":"1608","CNTNTS_TITLE":"가조오리숯불구이","TOBIZ_NM":"","CNTNTS_ADRES":"강원도 고성군 토성면 용원로 650-20","CNTNTS_ADRES2":"","CNTNTS_TELNO":"033-638-3309","CNTNTS_MENU":"막국수, 토종닭","REPRSNT_PERSON_NM":"","CNTNTS_PRKPLCE_AT":"N","PAY_METHD":"","CNTNTS_URL":"","CNTNTS_TXT":"","LAT":"38.2139906","LNG":"128.5103904","CNTNTS_UPDE":"2012-03-28 22:02:11.0"},{"CNTNTS_AREA":"강원","CNTNTS_AREA2":"고성군","CNTNTS_SN":"1611","CNTNTS_TITLE":"해오름횟집","TOBIZ_NM":"","CNTNTS_ADRES":"강원도 고성군 거진읍 반암길 38","CNTNTS_ADRES2":"","CNTNTS_TELNO":"033-682-3843","CNTNTS_MENU":"생선회, 생선매운탕","REPRSNT_PERSON_NM":"","CNTNTS_PRKPLCE_AT":"N","PAY_METHD":"","CNTNTS_URL":"","CNTNTS_TXT":"","LAT":"38.4223487","LNG":"128.4626088","CNTNTS_UPDE":"2012-03-28 22:02:11.0"},{"CNTNTS_AREA":"강원","CNTNTS_AREA2":"고성군","CNTNTS_SN":"1612","CNTNTS_TITLE":"화진포막국수","TOBIZ_NM":"","CNTNTS_ADRES":"강원도 고성군 거진읍 화진포길 21","CNTNTS_ADRES2":"","CNTNTS_TELNO":"033-682-4487","CNTNTS_MENU":"막국수, 메밀만두, 메밀전, 편육","REPRSNT_PERSON_NM":"","CNTNTS_PRKPLCE_AT":"N","PAY_METHD":"","CNTNTS_URL":"","CNTNTS_TXT":"","LAT":"38.4509794","LNG":"128.4406297","CNTNTS_UPDE":"2012-03-28 22:02:11.0"},{"CNTNTS_AREA":"강원","CNTNTS_AREA2":"고성군","CNTNTS_SN":"1614","CNTNTS_TITLE":"염광활어횟집","TOBIZ_NM":"","CNTNTS_ADRES":"강원도 고성군 거진읍 거진항1길 49-1","CNTNTS_ADRES2":"","CNTNTS_TELNO":"033- 682-3131","CNTNTS_MENU":"생선회, 생선매운탕","REPRSNT_PERSON_NM":"","CNTNTS_PRKPLCE_AT":"N","PAY_METHD":"","CNTNTS_URL":"","CNTNTS_TXT":"","LAT":"38.4481813","LNG":"128.4632503","CNTNTS_UPDE":"2012-03-28 22:02:11.0"},{"CNTNTS_AREA":"강원","CNTNTS_AREA2":"고성군","CNTNTS_SN":"1616","CNTNTS_TITLE":"한수위숯불갈비","TOBIZ_NM":"","CNTNTS_ADRES":"강원도 고성군 간성읍 하리 30-2번지","CNTNTS_ADRES2":"","CNTNTS_TELNO":"033-681-9292","CNTNTS_MENU":"한우생고기, 한우갈비탕, 불고기정식, 돼지갈비","REPRSNT_PERSON_NM":"","CNTNTS_PRKPLCE_AT":"N","PAY_METHD":"","CNTNTS_URL":"","CNTNTS_TXT":"","LAT":"38.3788413","LNG":"128.4672108","CNTNTS_UPDE":"2012-03-28 22:02:11.0"},{"CNTNTS_AREA":"강원","CNTNTS_AREA2":"고성군","CNTNTS_SN":"1617","CNTNTS_TITLE":"영동숯불갈비","TOBIZ_NM":"","CNTNTS_ADRES":"강원도 고성군 죽왕면 오호천길 3","CNTNTS_ADRES2":"","CNTNTS_TELNO":"033) 631-3309","CNTNTS_MENU":"한우생고기, 한우갈비탕, 불고기정식, 돼지갈비","REPRSNT_PERSON_NM":"","CNTNTS_PRKPLCE_AT":"N","PAY_METHD":"","CNTNTS_URL":"","CNTNTS_TXT":"","LAT":"38.3280649","LNG":"128.5249599","CNTNTS_UPDE":"2012-03-28 22:02:11.0"},{"CNTNTS_AREA":"강원","CNTNTS_AREA2":"고성군","CNTNTS_SN":"1627","CNTNTS_TITLE":"진부령식당","TOBIZ_NM":"","CNTNTS_ADRES":"강원도 고성군 간성읍 진부령로 662","CNTNTS_ADRES2":"","CNTNTS_TELNO":"033-681-4735","CNTNTS_MENU":"황태구이","REPRSNT_PERSON_NM":"","CNTNTS_PRKPLCE_AT":"N","PAY_METHD":"","CNTNTS_URL":"","CNTNTS_TXT":"","LAT":"38.2650776","LNG":"128.3592139","CNTNTS_UPDE":"2012-03-28 22:02:11.0"},{"CNTNTS_AREA":"강원","CNTNTS_AREA2":"고성군","CNTNTS_SN":"1629","CNTNTS_TITLE":"진부령휴게소","TOBIZ_NM":"","CNTNTS_ADRES":"강원도 고성군 간성읍 진부령로 1000","CNTNTS_ADRES2":"","CNTNTS_TELNO":"033-681-6111","CNTNTS_MENU":"정식, 돈까스, 함박스테이크","REPRSNT_PERSON_NM":"","CNTNTS_PRKPLCE_AT":"N","PAY_METHD":"","CNTNTS_URL":"","CNTNTS_TXT":"","LAT":"38.2852272","LNG":"128.3604939","CNTNTS_UPDE":"2012-03-28 22:02:11.0"},{"CNTNTS_AREA":"강원","CNTNTS_AREA2":"고성군","CNTNTS_SN":"1630","CNTNTS_TITLE":"장미경양식","TOBIZ_NM":"","CNTNTS_ADRES":"강원도 고성군 거진읍 거진길 37-1","CNTNTS_ADRES2":"","CNTNTS_TELNO":"033-682-2084","CNTNTS_MENU":"정식, 돈까스, 함박스테이크","REPRSNT_PERSON_NM":"","CNTNTS_PRKPLCE_AT":"N","PAY_METHD":"","CNTNTS_URL":"","CNTNTS_TXT":"","LAT":"38.4473233","LNG":"128.4545874","CNTNTS_UPDE":"2012-03-28 22:02:11.0"},{"CNTNTS_AREA":"강원","CNTNTS_AREA2":"고성군","CNTNTS_SN":"1633","CNTNTS_TITLE":"해피홀리","TOBIZ_NM":"","CNTNTS_ADRES":"강원도 고성군 죽왕면 천학정길 71","CNTNTS_ADRES2":"","CNTNTS_TELNO":"033-632-2460","CNTNTS_MENU":"돈까스, 스파게티","REPRSNT_PERSON_NM":"","CNTNTS_PRKPLCE_AT":"N","PAY_METHD":"","CNTNTS_URL":"","CNTNTS_TXT":"","LAT":"38.2943587","LNG":"128.5477868","CNTNTS_UPDE":"2012-03-28 22:02:11.0"},{"CNTNTS_AREA":"강원","CNTNTS_AREA2":"고성군","CNTNTS_SN":"1635","CNTNTS_TITLE":"차우차우","TOBIZ_NM":"","CNTNTS_ADRES":"강원도 고성군 현내면 대진리 산16","CNTNTS_ADRES2":"","CNTNTS_TELNO":"033-681-2114","CNTNTS_MENU":"탕수육, 족발, 치킨","REPRSNT_PERSON_NM":"","CNTNTS_PRKPLCE_AT":"N","PAY_METHD":"","CNTNTS_URL":"","CNTNTS_TXT":"","LAT":"38.5031306","LNG":"128.4162127","CNTNTS_UPDE":"2012-03-28 22:02:11.0"},{"CNTNTS_AREA":"강원","CNTNTS_AREA2":"고성군","CNTNTS_SN":"1636","CNTNTS_TITLE":"하나울","TOBIZ_NM":"","CNTNTS_ADRES":"강원도 고성군 토성면 용원로 552-7","CNTNTS_ADRES2":"","CNTNTS_TELNO":"033-636-3774","CNTNTS_MENU":"양식","REPRSNT_PERSON_NM":"","CNTNTS_PRKPLCE_AT":"N","PAY_METHD":"","CNTNTS_URL":"","CNTNTS_TXT":"","LAT":"38.2153738","LNG":"128.5202084","CNTNTS_UPDE":"2012-03-28 22:02:11.0"},{"CNTNTS_AREA":"강원","CNTNTS_AREA2":"고성군","CNTNTS_SN":"1638","CNTNTS_TITLE":"인스브르크","TOBIZ_NM":"","CNTNTS_ADRES":"강원도 고성군 간성읍 흘리 15-45","CNTNTS_ADRES2":"","CNTNTS_TELNO":"033-681-3055","CNTNTS_MENU":"돈까스","REPRSNT_PERSON_NM":"","CNTNTS_PRKPLCE_AT":"N","PAY_METHD":"","CNTNTS_URL":"","CNTNTS_TXT":"","LAT":"38.2699683","LNG":"128.3819402","CNTNTS_UPDE":"2012-03-28 22:02:11.0"},{"CNTNTS_AREA":"강원","CNTNTS_AREA2":"고성군","CNTNTS_SN":"1639","CNTNTS_TITLE":"한양돌곱창","TOBIZ_NM":"","CNTNTS_ADRES":"강원도 고성군 거진읍 거탄진로 85","CNTNTS_ADRES2":"","CNTNTS_TELNO":"033-682-1504","CNTNTS_MENU":"곱창전골, 곱창구이, 삼겹살, 김치찌게","REPRSNT_PERSON_NM":"","CNTNTS_PRKPLCE_AT":"N","PAY_METHD":"","CNTNTS_URL":"","CNTNTS_TXT":"","LAT":"38.4427766","LNG":"128.4531178","CNTNTS_UPDE":"2012-03-28 22:02:11.0"},{"CNTNTS_AREA":"강원","CNTNTS_AREA2":"고성군","CNTNTS_SN":"1640","CNTNTS_TITLE":"해금강식당","TOBIZ_NM":"","CNTNTS_ADRES":"강원도 고성군 현내면 명파리 산346","CNTNTS_ADRES2":"","CNTNTS_TELNO":"033-682-0665","CNTNTS_MENU":"산채정식","REPRSNT_PERSON_NM":"","CNTNTS_PRKPLCE_AT":"N","PAY_METHD":"","CNTNTS_URL":"","CNTNTS_TXT":"","LAT":"38.5382283","LNG":"128.3727293","CNTNTS_UPDE":"2012-03-28 22:02:11.0"},{"CNTNTS_AREA":"강원","CNTNTS_AREA2":"고성군","CNTNTS_SN":"1642","CNTNTS_TITLE":"송죽식당","TOBIZ_NM":"","CNTNTS_ADRES":"강원도 고성군 현내면 대진리 304","CNTNTS_ADRES2":"","CNTNTS_TELNO":"033-682-0019","CNTNTS_MENU":"모듬회,생선매운탕","REPRSNT_PERSON_NM":"","CNTNTS_PRKPLCE_AT":"N","PAY_METHD":"","CNTNTS_URL":"","CNTNTS_TXT":"","LAT":"38.5008363","LNG":"128.416634","CNTNTS_UPDE":"2012-03-28 22:02:11.0"},{"CNTNTS_AREA":"강원","CNTNTS_AREA2":"고성군","CNTNTS_SN":"1644","CNTNTS_TITLE":"자매해녀횟집","TOBIZ_NM":"","CNTNTS_ADRES":"강원도 고성군 죽왕면 가진리 12","CNTNTS_ADRES2":"","CNTNTS_TELNO":"033-681-4071","CNTNTS_MENU":"생선회, 회덮밥, 물회, 매운탕","REPRSNT_PERSON_NM":"","CNTNTS_PRKPLCE_AT":"N","PAY_METHD":"","CNTNTS_URL":"","CNTNTS_TXT":"","LAT":"38.3722572","LNG":"128.509407","CNTNTS_UPDE":"2012-03-28 22:02:11.0"},{"CNTNTS_AREA":"강원","CNTNTS_AREA2":"고성군","CNTNTS_SN":"1647","CNTNTS_TITLE":"송심식당","TOBIZ_NM":"","CNTNTS_ADRES":"강원도 고성군 죽왕면 오호2길 8","CNTNTS_ADRES2":"","CNTNTS_TELNO":"033-632-5791","CNTNTS_MENU":"짜장면,볶음밥","REPRSNT_PERSON_NM":"","CNTNTS_PRKPLCE_AT":"N","PAY_METHD":"","CNTNTS_URL":"","CNTNTS_TXT":"","LAT":"38.3295039","LNG":"128.525119","CNTNTS_UPDE":"2012-03-28 22:02:11.0"},{"CNTNTS_AREA":"강원","CNTNTS_AREA2":"고성군","CNTNTS_SN":"1648","CNTNTS_TITLE":"플러스원","TOBIZ_NM":"","CNTNTS_ADRES":"강원도 고성군 토성면 용원로 552-12","CNTNTS_ADRES2":"","CNTNTS_TELNO":"033-636-2789","CNTNTS_MENU":"양식","REPRSNT_PERSON_NM":"","CNTNTS_PRKPLCE_AT":"N","PAY_METHD":"","CNTNTS_URL":"","CNTNTS_TXT":"","LAT":"38.2159651","LNG":"128.5211616","CNTNTS_UPDE":"2012-03-28 22:02:11.0"},{"CNTNTS_AREA":"강원","CNTNTS_AREA2":"고성군","CNTNTS_SN":"1649","CNTNTS_TITLE":"우드힐","TOBIZ_NM":"","CNTNTS_ADRES":"강원도 고성군 토성면 성대리 611","CNTNTS_ADRES2":"","CNTNTS_TELNO":"033-631-8339","CNTNTS_MENU":"바닷가재요리","REPRSNT_PERSON_NM":"","CNTNTS_PRKPLCE_AT":"N","PAY_METHD":"","CNTNTS_URL":"","CNTNTS_TXT":"","LAT":"38.252973","LNG":"128.4893349","CNTNTS_UPDE":"2012-03-28 22:02:11.0"},{"CNTNTS_AREA":"강원","CNTNTS_AREA2":"고성군","CNTNTS_SN":"1693","CNTNTS_TITLE":"돌담집","TOBIZ_NM":"","CNTNTS_ADRES":"강원도 고성군 죽왕면 운봉산로 22-13","CNTNTS_ADRES2":"","CNTNTS_TELNO":"033-631-1719","CNTNTS_MENU":"영양탕, 백숙, 추어탕","REPRSNT_PERSON_NM":"","CNTNTS_PRKPLCE_AT":"N","PAY_METHD":"","CNTNTS_URL":"","CNTNTS_TXT":"","LAT":"38.3040386","LNG":"128.5362626","CNTNTS_UPDE":"2012-03-28 22:02:11.0"},{"CNTNTS_AREA":"강원","CNTNTS_AREA2":"고성군","CNTNTS_SN":"1695","CNTNTS_TITLE":"통일식당","TOBIZ_NM":"","CNTNTS_ADRES":"강원도 고성군 현내면 명파리 산346","CNTNTS_ADRES2":"","CNTNTS_TELNO":"033-681-7979","CNTNTS_MENU":"막국수, 냉면","REPRSNT_PERSON_NM":"","CNTNTS_PRKPLCE_AT":"N","PAY_METHD":"","CNTNTS_URL":"","CNTNTS_TXT":"","LAT":"38.5382283","LNG":"128.3727293","CNTNTS_UPDE":"2012-03-28 22:02:11.0"},{"CNTNTS_AREA":"강원","CNTNTS_AREA2":"고성군","CNTNTS_SN":"1697","CNTNTS_TITLE":"팔도막국수","TOBIZ_NM":"","CNTNTS_ADRES":"강원도 고성군 거진읍 등대길 7-2","CNTNTS_ADRES2":"","CNTNTS_TELNO":"033-682-7778","CNTNTS_MENU":"막국수, 냉면","REPRSNT_PERSON_NM":"","CNTNTS_PRKPLCE_AT":"N","PAY_METHD":"","CNTNTS_URL":"","CNTNTS_TXT":"","LAT":"38.4503004","LNG":"128.4618616","CNTNTS_UPDE":"2012-03-28 22:02:11.0"},{"CNTNTS_AREA":"강원","CNTNTS_AREA2":"고성군","CNTNTS_SN":"1698","CNTNTS_TITLE":"쌍용식당","TOBIZ_NM":"","CNTNTS_ADRES":"강원도 고성군 거진읍 거진길 104-1","CNTNTS_ADRES2":"","CNTNTS_TELNO":"033-681-1151","CNTNTS_MENU":"생선찌개, 돼지갈비","REPRSNT_PERSON_NM":"","CNTNTS_PRKPLCE_AT":"N","PAY_METHD":"","CNTNTS_URL":"","CNTNTS_TXT":"","LAT":"38.44968","LNG":"128.4610866","CNTNTS_UPDE":"2012-03-28 22:02:11.0"},{"CNTNTS_AREA":"강원","CNTNTS_AREA2":"고성군","CNTNTS_SN":"1699","CNTNTS_TITLE":"신설식당","TOBIZ_NM":"","CNTNTS_ADRES":"강원도 고성군 토성면 천진리 179","CNTNTS_ADRES2":"","CNTNTS_TELNO":"033-636-5970","CNTNTS_MENU":"해물전골","REPRSNT_PERSON_NM":"","CNTNTS_PRKPLCE_AT":"N","PAY_METHD":"","CNTNTS_URL":"","CNTNTS_TXT":"","LAT":"38.2564864","LNG":"128.5601385","CNTNTS_UPDE":"2012-03-28 22:02:11.0"},{"CNTNTS_AREA":"강원","CNTNTS_AREA2":"고성군","CNTNTS_SN":"1702","CNTNTS_TITLE":"우정활어직판장","TOBIZ_NM":"","CNTNTS_ADRES":"강원도 고성군 토성면 아야진3길 25","CNTNTS_ADRES2":"","CNTNTS_TELNO":"033-631-2227","CNTNTS_MENU":"모듬회","REPRSNT_PERSON_NM":"","CNTNTS_PRKPLCE_AT":"N","PAY_METHD":"","CNTNTS_URL":"","CNTNTS_TXT":"","LAT":"38.2730118","LNG":"128.5551956","CNTNTS_UPDE":"2012-03-28 22:02:11.0"},{"CNTNTS_AREA":"강원","CNTNTS_AREA2":"고성군","CNTNTS_SN":"1704","CNTNTS_TITLE":"처갓집양념통닭","TOBIZ_NM":"","CNTNTS_ADRES":"강원도 고성군 간성읍 간성로 40","CNTNTS_ADRES2":"","CNTNTS_TELNO":"033-681-3360","CNTNTS_MENU":"후라이드, 양념치킨","REPRSNT_PERSON_NM":"","CNTNTS_PRKPLCE_AT":"N","PAY_METHD":"","CNTNTS_URL":"","CNTNTS_TXT":"","LAT":"38.3792766","LNG":"128.4705637","CNTNTS_UPDE":"2012-03-28 22:02:11.0"},{"CNTNTS_AREA":"강원","CNTNTS_AREA2":"고성군","CNTNTS_SN":"1706","CNTNTS_TITLE":"원당가든","TOBIZ_NM":"","CNTNTS_ADRES":"강원도 고성군 거진읍 봉정로 277","CNTNTS_ADRES2":"","CNTNTS_TELNO":"033-682-5002","CNTNTS_MENU":"산채비빔밥, 막국수, 표고찌게","REPRSNT_PERSON_NM":"","CNTNTS_PRKPLCE_AT":"N","PAY_METHD":"","CNTNTS_URL":"","CNTNTS_TXT":"","LAT":"38.4554591","LNG":"128.4242075","CNTNTS_UPDE":"2012-03-28 22:02:11.0"},{"CNTNTS_AREA":"강원","CNTNTS_AREA2":"고성군","CNTNTS_SN":"1707","CNTNTS_TITLE":"신선식당","TOBIZ_NM":"","CNTNTS_ADRES":"강원도 고성군 현내면 배봉리 48","CNTNTS_ADRES2":"","CNTNTS_TELNO":"033-682-5577","CNTNTS_MENU":"토종돼지,산채비빔밥","REPRSNT_PERSON_NM":"","CNTNTS_PRKPLCE_AT":"N","PAY_METHD":"","CNTNTS_URL":"","CNTNTS_TXT":"","LAT":"38.5369852","LNG":"128.4033854","CNTNTS_UPDE":"2012-03-28 22:02:11.0"},{"CNTNTS_AREA":"강원","CNTNTS_AREA2":"고성군","CNTNTS_SN":"1710","CNTNTS_TITLE":"수성반점","TOBIZ_NM":"","CNTNTS_ADRES":"강원도 고성군 죽왕면 공현진리 82","CNTNTS_ADRES2":"","CNTNTS_TELNO":"033-631-1492","CNTNTS_MENU":"짜장면","REPRSNT_PERSON_NM":"","CNTNTS_PRKPLCE_AT":"N","PAY_METHD":"","CNTNTS_URL":"","CNTNTS_TXT":"","LAT":"38.3551576","LNG":"128.5101544","CNTNTS_UPDE":"2012-03-28 22:02:11.0"},{"CNTNTS_AREA":"강원","CNTNTS_AREA2":"고성군","CNTNTS_SN":"1711","CNTNTS_TITLE":"소망식당","TOBIZ_NM":"","CNTNTS_ADRES":"강원도 고성군 거진읍 거진길 34","CNTNTS_ADRES2":"","CNTNTS_TELNO":"033-682-2430","CNTNTS_MENU":"추어탕, 돼지불백, 된장찌게","REPRSNT_PERSON_NM":"","CNTNTS_PRKPLCE_AT":"N","PAY_METHD":"","CNTNTS_URL":"","CNTNTS_TXT":"","LAT":"38.4469912","LNG":"128.4547308","CNTNTS_UPDE":"2012-03-28 22:02:11.0"},{"CNTNTS_AREA":"강원","CNTNTS_AREA2":"고성군","CNTNTS_SN":"1712","CNTNTS_TITLE":"평양면옥","TOBIZ_NM":"","CNTNTS_ADRES":"강원도 고성군 현내면 금강산로 819","CNTNTS_ADRES2":"","CNTNTS_TELNO":"033-682-0669","CNTNTS_MENU":"막국수, 칡냉면","REPRSNT_PERSON_NM":"","CNTNTS_PRKPLCE_AT":"N","PAY_METHD":"","CNTNTS_URL":"","CNTNTS_TXT":"","LAT":"38.5394686","LNG":"128.4011671","CNTNTS_UPDE":"2012-03-28 22:02:11.0"},{"CNTNTS_AREA":"강원","CNTNTS_AREA2":"고성군","CNTNTS_SN":"1714","CNTNTS_TITLE":"진식당","TOBIZ_NM":"","CNTNTS_ADRES":"강원도 고성군 간성읍 상리 96-8","CNTNTS_ADRES2":"","CNTNTS_TELNO":"033-681-3308","CNTNTS_MENU":"탕, 곰탕","REPRSNT_PERSON_NM":"","CNTNTS_PRKPLCE_AT":"N","PAY_METHD":"","CNTNTS_URL":"","CNTNTS_TXT":"","LAT":"38.3819292","LNG":"128.4634822","CNTNTS_UPDE":"2012-03-28 22:02:11.0"},{"CNTNTS_AREA":"강원","CNTNTS_AREA2":"고성군","CNTNTS_SN":"1717","CNTNTS_TITLE":"원암리토종흙돼지가든","TOBIZ_NM":"","CNTNTS_ADRES":"강원도 고성군 토성면 미시령로 2450","CNTNTS_ADRES2":"","CNTNTS_TELNO":"033-636-1666","CNTNTS_MENU":"토종흙돼지구이, 흙돼지찌개","REPRSNT_PERSON_NM":"","CNTNTS_PRKPLCE_AT":"N","PAY_METHD":"","CNTNTS_URL":"","CNTNTS_TXT":"","LAT":"38.2115395","LNG":"128.4753077","CNTNTS_UPDE":"2012-03-28 22:02:11.0"},{"CNTNTS_AREA":"강원","CNTNTS_AREA2":"고성군","CNTNTS_SN":"1718","CNTNTS_TITLE":"아야진활어직판장","TOBIZ_NM":"","CNTNTS_ADRES":"강원도 고성군 토성면 아야진해변길 76","CNTNTS_ADRES2":"","CNTNTS_TELNO":"033-631-1717","CNTNTS_MENU":"모듬회","REPRSNT_PERSON_NM":"","CNTNTS_PRKPLCE_AT":"N","PAY_METHD":"","CNTNTS_URL":"","CNTNTS_TXT":"","LAT":"38.2722288","LNG":"128.5563577","CNTNTS_UPDE":"2012-03-28 22:02:11.0"},{"CNTNTS_AREA":"강원","CNTNTS_AREA2":"고성군","CNTNTS_SN":"1729","CNTNTS_TITLE":"우리식당","TOBIZ_NM":"","CNTNTS_ADRES":"강원도 고성군 현내면 금강산로 113","CNTNTS_ADRES2":"","CNTNTS_TELNO":"033-682-0042","CNTNTS_MENU":"황태구이,가자미회냉면,춘천막국수,갈비탕,육계장","REPRSNT_PERSON_NM":"","CNTNTS_PRKPLCE_AT":"N","PAY_METHD":"","CNTNTS_URL":"","CNTNTS_TXT":"","LAT":"38.4865277","LNG":"128.4325577","CNTNTS_UPDE":"2012-03-28 22:02:11.0"},{"CNTNTS_AREA":"강원","CNTNTS_AREA2":"고성군","CNTNTS_SN":"1731","CNTNTS_TITLE":"포구식당","TOBIZ_NM":"","CNTNTS_ADRES":"강원도 고성군 현내면 대진리 304","CNTNTS_ADRES2":"","CNTNTS_TELNO":"033-682-4551","CNTNTS_MENU":"뼈다귀해장국, 생선조림","REPRSNT_PERSON_NM":"","CNTNTS_PRKPLCE_AT":"N","PAY_METHD":"","CNTNTS_URL":"","CNTNTS_TXT":"","LAT":"38.5008363","LNG":"128.416634","CNTNTS_UPDE":"2012-03-28 22:02:11.0"},{"CNTNTS_AREA":"강원","CNTNTS_AREA2":"고성군","CNTNTS_SN":"1732","CNTNTS_TITLE":"인흥솔밭집","TOBIZ_NM":"","CNTNTS_ADRES":"강원도 고성군 토성면 인흥1길23","CNTNTS_ADRES2":"","CNTNTS_TELNO":"033-636-8539","CNTNTS_MENU":"영양탕","REPRSNT_PERSON_NM":"","CNTNTS_PRKPLCE_AT":"N","PAY_METHD":"","CNTNTS_URL":"","CNTNTS_TXT":"","LAT":"38.2353973","LNG":"128.5501359","CNTNTS_UPDE":"2012-03-28 22:02:11.0"},{"CNTNTS_AREA":"강원","CNTNTS_AREA2":"고성군","CNTNTS_SN":"1733","CNTNTS_TITLE":"초양닭갈비곱창","TOBIZ_NM":"","CNTNTS_ADRES":"강원도 고성군 간성읍 간성로 40","CNTNTS_ADRES2":"","CNTNTS_TELNO":"033-681-3451","CNTNTS_MENU":"닭갈비, 곱창","REPRSNT_PERSON_NM":"","CNTNTS_PRKPLCE_AT":"N","PAY_METHD":"","CNTNTS_URL":"","CNTNTS_TXT":"","LAT":"38.3792766","LNG":"128.4705637","CNTNTS_UPDE":"2012-03-28 22:02:11.0"},{"CNTNTS_AREA":"강원","CNTNTS_AREA2":"고성군","CNTNTS_SN":"1736","CNTNTS_TITLE":"풍년냉면","TOBIZ_NM":"","CNTNTS_ADRES":"강원도 고성군 토성면 천학정길 21","CNTNTS_ADRES2":"","CNTNTS_TELNO":"033-631-3315","CNTNTS_MENU":"냉면","REPRSNT_PERSON_NM":"","CNTNTS_PRKPLCE_AT":"N","PAY_METHD":"","CNTNTS_URL":"","CNTNTS_TXT":"","LAT":"38.2901836","LNG":"128.5472193","CNTNTS_UPDE":"2012-03-28 22:02:11.0"},{"CNTNTS_AREA":"강원","CNTNTS_AREA2":"고성군","CNTNTS_SN":"1739","CNTNTS_TITLE":"오호리순대국집","TOBIZ_NM":"","CNTNTS_ADRES":"강원도 고성군 죽왕면 동해대로 5893-7","CNTNTS_ADRES2":"","CNTNTS_TELNO":"033-632-5754","CNTNTS_MENU":"순대국밥,소내장탕,부대찌게","REPRSNT_PERSON_NM":"","CNTNTS_PRKPLCE_AT":"N","PAY_METHD":"","CNTNTS_URL":"","CNTNTS_TXT":"","LAT":"38.3282308","LNG":"128.523703","CNTNTS_UPDE":"2012-03-28 22:02:11.0"},{"CNTNTS_AREA":"강원","CNTNTS_AREA2":"고성군","CNTNTS_SN":"1740","CNTNTS_TITLE":"신평골농장","TOBIZ_NM":"","CNTNTS_ADRES":"강원도 고성군 토성면 신평골길 8-11","CNTNTS_ADRES2":"","CNTNTS_TELNO":"033-633-6340","CNTNTS_MENU":"기러기요리","REPRSNT_PERSON_NM":"","CNTNTS_PRKPLCE_AT":"N","PAY_METHD":"","CNTNTS_URL":"","CNTNTS_TXT":"","LAT":"38.2313041","LNG":"128.5052675","CNTNTS_UPDE":"2012-03-28 22:02:11.0"},{"CNTNTS_AREA":"강원","CNTNTS_AREA2":"고성군","CNTNTS_SN":"1741","CNTNTS_TITLE":"함흥면옥","TOBIZ_NM":"","CNTNTS_ADRES":"강원도 고성군 현내면 명파리 644","CNTNTS_ADRES2":"","CNTNTS_TELNO":"033-682-0662","CNTNTS_MENU":"냉면, 산채정식","REPRSNT_PERSON_NM":"","CNTNTS_PRKPLCE_AT":"N","PAY_METHD":"","CNTNTS_URL":"","CNTNTS_TXT":"","LAT":"38.5374624","LNG":"128.3727746","CNTNTS_UPDE":"2012-03-28 22:02:11.0"},{"CNTNTS_AREA":"강원","CNTNTS_AREA2":"고성군","CNTNTS_SN":"1744","CNTNTS_TITLE":"삼포고기마을","TOBIZ_NM":"","CNTNTS_ADRES":"강원도 고성군 죽왕면 삼포민박촌2길 5","CNTNTS_ADRES2":"","CNTNTS_TELNO":"033-631-9869","CNTNTS_MENU":"한식, 돼지양념갈비","REPRSNT_PERSON_NM":"","CNTNTS_PRKPLCE_AT":"N","PAY_METHD":"","CNTNTS_URL":"","CNTNTS_TXT":"","LAT":"38.3158191","LNG":"128.5301834","CNTNTS_UPDE":"2012-03-28 22:02:11.0"},{"CNTNTS_AREA":"강원","CNTNTS_AREA2":"고성군","CNTNTS_SN":"1745","CNTNTS_TITLE":"일미식당","TOBIZ_NM":"","CNTNTS_ADRES":"강원도 고성군 간성읍 간성시장2길 7-1","CNTNTS_ADRES2":"","CNTNTS_TELNO":"033-681-1070","CNTNTS_MENU":"감자탕, 부대찌개, 해물전골, 아구찜, 육개장","REPRSNT_PERSON_NM":"","CNTNTS_PRKPLCE_AT":"N","PAY_METHD":"","CNTNTS_URL":"","CNTNTS_TXT":"","LAT":"38.3798377","LNG":"128.4697089","CNTNTS_UPDE":"2012-03-28 22:02:11.0"},{"CNTNTS_AREA":"강원","CNTNTS_AREA2":"고성군","CNTNTS_SN":"1746","CNTNTS_TITLE":"토성반점","TOBIZ_NM":"","CNTNTS_ADRES":"강원도 고성군 토성면 토성로 150","CNTNTS_ADRES2":"","CNTNTS_TELNO":"033-632-1264","CNTNTS_MENU":"짜장면","REPRSNT_PERSON_NM":"","CNTNTS_PRKPLCE_AT":"N","PAY_METHD":"","CNTNTS_URL":"","CNTNTS_TXT":"","LAT":"38.2582617","LNG":"128.5585421","CNTNTS_UPDE":"2012-03-28 22:02:11.0"},{"CNTNTS_AREA":"강원","CNTNTS_AREA2":"고성군","CNTNTS_SN":"1748","CNTNTS_TITLE":"푸른샘가든","TOBIZ_NM":"","CNTNTS_ADRES":"강원도 고성군 거진읍 포남길 81-18","CNTNTS_ADRES2":"","CNTNTS_TELNO":"033-682-1218","CNTNTS_MENU":"생갈비, 생등심","REPRSNT_PERSON_NM":"","CNTNTS_PRKPLCE_AT":"N","PAY_METHD":"","CNTNTS_URL":"","CNTNTS_TXT":"","LAT":"38.4307463","LNG":"128.4449232","CNTNTS_UPDE":"2012-03-28 22:02:11.0"},{"CNTNTS_AREA":"강원","CNTNTS_AREA2":"고성군","CNTNTS_SN":"1753","CNTNTS_TITLE":"온달가든","TOBIZ_NM":"","CNTNTS_ADRES":"강원도 고성군 거진읍 송포리 산12","CNTNTS_ADRES2":"","CNTNTS_TELNO":"033) 682-4294","CNTNTS_MENU":"소등심,돼지갈비,영양돌솥밥,냉면","REPRSNT_PERSON_NM":"","CNTNTS_PRKPLCE_AT":"N","PAY_METHD":"","CNTNTS_URL":"","CNTNTS_TXT":"","LAT":"38.4297587","LNG":"128.4440146","CNTNTS_UPDE":"2012-03-28 22:02:11.0"},{"CNTNTS_AREA":"강원","CNTNTS_AREA2":"고성군","CNTNTS_SN":"1755","CNTNTS_TITLE":"풍차식당","TOBIZ_NM":"","CNTNTS_ADRES":"강원도 고성군 죽왕면 오호리 224-4","CNTNTS_ADRES2":"","CNTNTS_TELNO":"033-631-2212","CNTNTS_MENU":"중식","REPRSNT_PERSON_NM":"","CNTNTS_PRKPLCE_AT":"N","PAY_METHD":"","CNTNTS_URL":"","CNTNTS_TXT":"","LAT":"38.329692","LNG":"128.5227414","CNTNTS_UPDE":"2012-03-28 22:02:11.0"},{"CNTNTS_AREA":"강원","CNTNTS_AREA2":"고성군","CNTNTS_SN":"1757","CNTNTS_TITLE":"피자링","TOBIZ_NM":"","CNTNTS_ADRES":"강원도 고성군 거진읍 거탄진로 129","CNTNTS_ADRES2":"","CNTNTS_TELNO":"033-682-5250","CNTNTS_MENU":"피자, 햄버거","REPRSNT_PERSON_NM":"","CNTNTS_PRKPLCE_AT":"N","PAY_METHD":"","CNTNTS_URL":"","CNTNTS_TXT":"","LAT":"38.4465207","LNG":"128.4550211","CNTNTS_UPDE":"2012-03-28 22:02:11.0"},{"CNTNTS_AREA":"강원","CNTNTS_AREA2":"고성군","CNTNTS_SN":"1758","CNTNTS_TITLE":"통일로타운횟집","TOBIZ_NM":"","CNTNTS_ADRES":"강원도 고성군 죽왕면 가진리 412","CNTNTS_ADRES2":"","CNTNTS_TELNO":"033-681-4257","CNTNTS_MENU":"물회","REPRSNT_PERSON_NM":"","CNTNTS_PRKPLCE_AT":"N","PAY_METHD":"","CNTNTS_URL":"","CNTNTS_TXT":"","LAT":"38.3697827","LNG":"128.5013549","CNTNTS_UPDE":"2012-03-28 22:02:11.0"},{"CNTNTS_AREA":"강원","CNTNTS_AREA2":"고성군","CNTNTS_SN":"1760","CNTNTS_TITLE":"페리카나치킨","TOBIZ_NM":"","CNTNTS_ADRES":"강원도 고성군 토성면 교암리 67번지","CNTNTS_ADRES2":"","CNTNTS_TELNO":"033-631-7228","CNTNTS_MENU":"후라이드","REPRSNT_PERSON_NM":"","CNTNTS_PRKPLCE_AT":"N","PAY_METHD":"","CNTNTS_URL":"","CNTNTS_TXT":"","LAT":"38.2908195","LNG":"128.5433831","CNTNTS_UPDE":"2012-03-28 22:02:11.0"},{"CNTNTS_AREA":"강원","CNTNTS_AREA2":"고성군","CNTNTS_SN":"1773","CNTNTS_TITLE":"해동회마트","TOBIZ_NM":"","CNTNTS_ADRES":"강원도 고성군 현내면 대진항길 57","CNTNTS_ADRES2":"","CNTNTS_TELNO":"033-682-6667","CNTNTS_MENU":"매운탕, 세꼬시","REPRSNT_PERSON_NM":"","CNTNTS_PRKPLCE_AT":"N","PAY_METHD":"","CNTNTS_URL":"","CNTNTS_TXT":"","LAT":"38.497025","LNG":"128.427488","CNTNTS_UPDE":"2012-03-28 22:02:11.0"},{"CNTNTS_AREA":"강원","CNTNTS_AREA2":"고성군","CNTNTS_SN":"1775","CNTNTS_TITLE":"잠수부횟집","TOBIZ_NM":"","CNTNTS_ADRES":"강원도 고성군 현내면 대진항길 57","CNTNTS_ADRES2":"","CNTNTS_TELNO":"033-682-4111","CNTNTS_MENU":"각종 물회","REPRSNT_PERSON_NM":"","CNTNTS_PRKPLCE_AT":"N","PAY_METHD":"","CNTNTS_URL":"","CNTNTS_TXT":"","LAT":"38.497025","LNG":"128.427488","CNTNTS_UPDE":"2012-03-28 22:02:11.0"},{"CNTNTS_AREA":"강원","CNTNTS_AREA2":"고성군","CNTNTS_SN":"1777","CNTNTS_TITLE":"제추골식당","TOBIZ_NM":"","CNTNTS_ADRES":"강원도 고성군 간성읍 진부로 1299","CNTNTS_ADRES2":"","CNTNTS_TELNO":"033-681-3073","CNTNTS_MENU":"한방오리백숙","REPRSNT_PERSON_NM":"","CNTNTS_PRKPLCE_AT":"N","PAY_METHD":"","CNTNTS_URL":"","CNTNTS_TXT":"","LAT":"38.2967827","LNG":"128.3440604","CNTNTS_UPDE":"2012-03-28 22:02:11.0"},{"CNTNTS_AREA":"강원","CNTNTS_AREA2":"고성군","CNTNTS_SN":"1778","CNTNTS_TITLE":"수양횟집","TOBIZ_NM":"","CNTNTS_ADRES":"강원도 고성군 현내면 대진항길 85-5","CNTNTS_ADRES2":"","CNTNTS_TELNO":"033-682-0214","CNTNTS_MENU":"활어회, 매운탕","REPRSNT_PERSON_NM":"","CNTNTS_PRKPLCE_AT":"N","PAY_METHD":"","CNTNTS_URL":"","CNTNTS_TXT":"","LAT":"38.4986521","LNG":"128.4254845","CNTNTS_UPDE":"2012-03-28 22:02:11.0"},{"CNTNTS_AREA":"강원","CNTNTS_AREA2":"고성군","CNTNTS_SN":"1780","CNTNTS_TITLE":"해초제국","TOBIZ_NM":"","CNTNTS_ADRES":"강원도 고성군 토성면 봉포리 61-2","CNTNTS_ADRES2":"","CNTNTS_TELNO":"033-632-5671","CNTNTS_MENU":"해초정식","REPRSNT_PERSON_NM":"","CNTNTS_PRKPLCE_AT":"N","PAY_METHD":"","CNTNTS_URL":"","CNTNTS_TXT":"","LAT":"38.2465865","LNG":"128.5590411","CNTNTS_UPDE":"2012-03-28 22:02:11.0"},{"CNTNTS_AREA":"강원","CNTNTS_AREA2":"고성군","CNTNTS_SN":"1781","CNTNTS_TITLE":"통통치킨","TOBIZ_NM":"","CNTNTS_ADRES":"강원도 고성군 거진읍 거탄진로129번길 17","CNTNTS_ADRES2":"","CNTNTS_TELNO":"033-681-0092","CNTNTS_MENU":"후라이드치킨, 양념치킨","REPRSNT_PERSON_NM":"","CNTNTS_PRKPLCE_AT":"N","PAY_METHD":"","CNTNTS_URL":"","CNTNTS_TXT":"","LAT":"38.4473076","LNG":"128.4533008","CNTNTS_UPDE":"2012-03-28 22:02:11.0"},{"CNTNTS_AREA":"강원","CNTNTS_AREA2":"고성군","CNTNTS_SN":"1784","CNTNTS_TITLE":"용궁숯불갈비","TOBIZ_NM":"","CNTNTS_ADRES":"강원도 고성군 거진읍 거탄진로 132","CNTNTS_ADRES2":"","CNTNTS_TELNO":"033-682-4288","CNTNTS_MENU":"돼지갈비, 냉면","REPRSNT_PERSON_NM":"","CNTNTS_PRKPLCE_AT":"N","PAY_METHD":"","CNTNTS_URL":"","CNTNTS_TXT":"","LAT":"38.4464688","LNG":"128.4554034","CNTNTS_UPDE":"2012-03-28 22:02:11.0"},{"CNTNTS_AREA":"강원","CNTNTS_AREA2":"고성군","CNTNTS_SN":"1785","CNTNTS_TITLE":"진성활어회센타","TOBIZ_NM":"","CNTNTS_ADRES":"강원 고성군 토성면 아야진해변길 76","CNTNTS_ADRES2":"","CNTNTS_TELNO":"033) 632-9660","CNTNTS_MENU":"모듬회","REPRSNT_PERSON_NM":"","CNTNTS_PRKPLCE_AT":"N","PAY_METHD":"","CNTNTS_URL":"","CNTNTS_TXT":"","LAT":"38.2722288","LNG":"128.5563577","CNTNTS_UPDE":"2012-03-28 22:02:11.0"},{"CNTNTS_AREA":"강원","CNTNTS_AREA2":"고성군","CNTNTS_SN":"1787","CNTNTS_TITLE":"중앙식당","TOBIZ_NM":"","CNTNTS_ADRES":"강원 고성군 간성읍 흘리 산77-13","CNTNTS_ADRES2":"","CNTNTS_TELNO":"033-681-3827","CNTNTS_MENU":"황태구이정식","REPRSNT_PERSON_NM":"","CNTNTS_PRKPLCE_AT":"N","PAY_METHD":"","CNTNTS_URL":"","CNTNTS_TXT":"","LAT":"0.0","LNG":"0.0","CNTNTS_UPDE":"2012-03-28 22:02:11.0"},{"CNTNTS_AREA":"강원","CNTNTS_AREA2":"고성군","CNTNTS_SN":"1788","CNTNTS_TITLE":"하얀식당","TOBIZ_NM":"","CNTNTS_ADRES":"강원도 고성군 간성읍 흘리 40-9","CNTNTS_ADRES2":"","CNTNTS_TELNO":"033-681-4832","CNTNTS_MENU":"산채비빔밥","REPRSNT_PERSON_NM":"","CNTNTS_PRKPLCE_AT":"N","PAY_METHD":"","CNTNTS_URL":"","CNTNTS_TXT":"","LAT":"38.2653491","LNG":"128.3712701","CNTNTS_UPDE":"2012-03-28 22:02:11.0"},{"CNTNTS_AREA":"강원","CNTNTS_AREA2":"고성군","CNTNTS_SN":"1790","CNTNTS_TITLE":"일미소금숯불구이","TOBIZ_NM":"","CNTNTS_ADRES":"강원도 고성군 거진읍 거진길 38-5","CNTNTS_ADRES2":"","CNTNTS_TELNO":"033-681-0666","CNTNTS_MENU":"쌈밥, 생고기","REPRSNT_PERSON_NM":"","CNTNTS_PRKPLCE_AT":"N","PAY_METHD":"","CNTNTS_URL":"","CNTNTS_TXT":"","LAT":"38.4470989","LNG":"128.4550683","CNTNTS_UPDE":"2012-03-28 22:02:11.0"},{"CNTNTS_AREA":"강원","CNTNTS_AREA2":"고성군","CNTNTS_SN":"1792","CNTNTS_TITLE":"화진포만남의광장","TOBIZ_NM":"","CNTNTS_ADRES":"강원도 고성군 현내면 금강산로 123","CNTNTS_ADRES2":"","CNTNTS_TELNO":"033-682-4475","CNTNTS_MENU":"황태구이, 산채비빔밥,황태해장국","REPRSNT_PERSON_NM":"","CNTNTS_PRKPLCE_AT":"N","PAY_METHD":"","CNTNTS_URL":"","CNTNTS_TXT":"","LAT":"38.4872392","LNG":"128.4323831","CNTNTS_UPDE":"2012-03-28 22:02:11.0"},{"CNTNTS_AREA":"강원","CNTNTS_AREA2":"고성군","CNTNTS_SN":"1793","CNTNTS_TITLE":"수원횟집","TOBIZ_NM":"","CNTNTS_ADRES":"강원도 고성군 토성면 아야진3길 25","CNTNTS_ADRES2":"","CNTNTS_TELNO":"033-631-2311","CNTNTS_MENU":"모듬회","REPRSNT_PERSON_NM":"","CNTNTS_PRKPLCE_AT":"N","PAY_METHD":"","CNTNTS_URL":"","CNTNTS_TXT":"","LAT":"38.2730118","LNG":"128.5551956","CNTNTS_UPDE":"2012-03-28 22:02:11.0"},{"CNTNTS_AREA":"강원","CNTNTS_AREA2":"고성군","CNTNTS_SN":"1812","CNTNTS_TITLE":"한일식당","TOBIZ_NM":"","CNTNTS_ADRES":"강원도 고성군 거진읍 거진시장길 14-1","CNTNTS_ADRES2":"","CNTNTS_TELNO":"033-682-2260","CNTNTS_MENU":"냉면, 갈비탕","REPRSNT_PERSON_NM":"","CNTNTS_PRKPLCE_AT":"N","PAY_METHD":"","CNTNTS_URL":"","CNTNTS_TXT":"","LAT":"38.44794","LNG":"128.4547116","CNTNTS_UPDE":"2012-03-28 22:02:11.0"},{"CNTNTS_AREA":"강원","CNTNTS_AREA2":"고성군","CNTNTS_SN":"1813","CNTNTS_TITLE":"한울식당","TOBIZ_NM":"","CNTNTS_ADRES":"강원도 고성군 간성읍 하리 41","CNTNTS_ADRES2":"","CNTNTS_TELNO":"033-681-2413","CNTNTS_MENU":"해물전골","REPRSNT_PERSON_NM":"","CNTNTS_PRKPLCE_AT":"N","PAY_METHD":"","CNTNTS_URL":"","CNTNTS_TXT":"","LAT":"38.3794273","LNG":"128.4675682","CNTNTS_UPDE":"2012-03-28 22:02:11.0"},{"CNTNTS_AREA":"강원","CNTNTS_AREA2":"고성군","CNTNTS_SN":"1814","CNTNTS_TITLE":"신토불이횟집","TOBIZ_NM":"","CNTNTS_ADRES":"강원도 고성군 죽왕면 가진리 98","CNTNTS_ADRES2":"","CNTNTS_TELNO":"033-681-4755","CNTNTS_MENU":"모듬회,생선매운탕","REPRSNT_PERSON_NM":"","CNTNTS_PRKPLCE_AT":"N","PAY_METHD":"","CNTNTS_URL":"","CNTNTS_TXT":"","LAT":"38.3696195","LNG":"128.5062094","CNTNTS_UPDE":"2012-03-28 22:02:11.0"},{"CNTNTS_AREA":"강원","CNTNTS_AREA2":"고성군","CNTNTS_SN":"1817","CNTNTS_TITLE":"해양갈비전문","TOBIZ_NM":"","CNTNTS_ADRES":"강원도 고성군 거진읍 거탄진로 136-1","CNTNTS_ADRES2":"","CNTNTS_TELNO":"033-681-5867","CNTNTS_MENU":"뼈없는닭갈비, 해물잡탕, 낙지볶음, 명태찜","REPRSNT_PERSON_NM":"","CNTNTS_PRKPLCE_AT":"N","PAY_METHD":"","CNTNTS_URL":"","CNTNTS_TXT":"","LAT":"38.446772","LNG":"128.4557376","CNTNTS_UPDE":"2012-03-28 22:02:11.0"},{"CNTNTS_AREA":"강원","CNTNTS_AREA2":"고성군","CNTNTS_SN":"1824","CNTNTS_TITLE":"항구횟집","TOBIZ_NM":"","CNTNTS_ADRES":"강원도 고성군 현내면 한나루로 137-4","CNTNTS_ADRES2":"","CNTNTS_TELNO":"033- 682-0124","CNTNTS_MENU":"생선회, 매운탕","REPRSNT_PERSON_NM":"","CNTNTS_PRKPLCE_AT":"N","PAY_METHD":"","CNTNTS_URL":"","CNTNTS_TXT":"","LAT":"38.4999779","LNG":"128.4238506","CNTNTS_UPDE":"2012-03-28 22:02:11.0"},{"CNTNTS_AREA":"강원","CNTNTS_AREA2":"고성군","CNTNTS_SN":"1825","CNTNTS_TITLE":"해동회식당","TOBIZ_NM":"","CNTNTS_ADRES":"강원도 고성군 거진읍 거탄진로 189-2","CNTNTS_ADRES2":"","CNTNTS_TELNO":"033-682-2289","CNTNTS_MENU":"생태지리, 매운탕, 모듬회, 물회","REPRSNT_PERSON_NM":"","CNTNTS_PRKPLCE_AT":"N","PAY_METHD":"","CNTNTS_URL":"","CNTNTS_TXT":"","LAT":"38.4494969","LNG":"128.4606867","CNTNTS_UPDE":"2012-03-28 22:02:11.0"},{"CNTNTS_AREA":"강원","CNTNTS_AREA2":"고성군","CNTNTS_SN":"1828","CNTNTS_TITLE":"해녀횟집","TOBIZ_NM":"","CNTNTS_ADRES":"강원도 고성군 거진읍 거탄진로 220-1","CNTNTS_ADRES2":"","CNTNTS_TELNO":"033-682-1883","CNTNTS_MENU":"생태지리, 매운탕, 모듬회, 물회","REPRSNT_PERSON_NM":"","CNTNTS_PRKPLCE_AT":"N","PAY_METHD":"","CNTNTS_URL":"","CNTNTS_TXT":"","LAT":"38.4482074","LNG":"128.4637248","CNTNTS_UPDE":"2012-03-28 22:02:11.0"},{"CNTNTS_AREA":"강원","CNTNTS_AREA2":"고성군","CNTNTS_SN":"1838","CNTNTS_TITLE":"중국성반점","TOBIZ_NM":"","CNTNTS_ADRES":"강원도  고성군 거진읍 거진리 146-17번지","CNTNTS_ADRES2":"","CNTNTS_TELNO":"033-681-5422","CNTNTS_MENU":"자장면, 짬뽕, 육개장","REPRSNT_PERSON_NM":"","CNTNTS_PRKPLCE_AT":"N","PAY_METHD":"","CNTNTS_URL":"","CNTNTS_TXT":"","LAT":"38.4497063","LNG":"128.4587359","CNTNTS_UPDE":"2012-03-28 22:02:11.0"},{"CNTNTS_AREA":"강원","CNTNTS_AREA2":"고성군","CNTNTS_SN":"1840","CNTNTS_TITLE":"짱구만두분식","TOBIZ_NM":"","CNTNTS_ADRES":"강원도 고성군 간성읍 간성로 51-4","CNTNTS_ADRES2":"","CNTNTS_TELNO":"033-681-5691","CNTNTS_MENU":"자장면, 짬뽕, 육개장","REPRSNT_PERSON_NM":"","CNTNTS_PRKPLCE_AT":"N","PAY_METHD":"","CNTNTS_URL":"","CNTNTS_TXT":"","LAT":"38.3790102","LNG":"128.469145","CNTNTS_UPDE":"2012-03-28 22:02:11.0"},{"CNTNTS_AREA":"강원","CNTNTS_AREA2":"고성군","CNTNTS_SN":"1843","CNTNTS_TITLE":"재래식순두부","TOBIZ_NM":"","CNTNTS_ADRES":"강원도 고성군 거진읍 진부령로 3003","CNTNTS_ADRES2":"","CNTNTS_TELNO":"033-681-3872","CNTNTS_MENU":"두부전골","REPRSNT_PERSON_NM":"","CNTNTS_PRKPLCE_AT":"N","PAY_METHD":"","CNTNTS_URL":"","CNTNTS_TXT":"","LAT":"38.3982718","LNG":"128.4649546","CNTNTS_UPDE":"2012-03-28 22:02:11.0"},{"CNTNTS_AREA":"강원","CNTNTS_AREA2":"고성군","CNTNTS_SN":"1844","CNTNTS_TITLE":"양평해장국","TOBIZ_NM":"","CNTNTS_ADRES":"강원도 고성군 거진읍 거진항길 11","CNTNTS_ADRES2":"","CNTNTS_TELNO":"033-682-3003","CNTNTS_MENU":"뼈다귀해장국, 선지해장국","REPRSNT_PERSON_NM":"","CNTNTS_PRKPLCE_AT":"N","PAY_METHD":"","CNTNTS_URL":"","CNTNTS_TXT":"","LAT":"38.4458275","LNG":"128.4548862","CNTNTS_UPDE":"2012-03-28 22:02:11.0"},{"CNTNTS_AREA":"강원","CNTNTS_AREA2":"고성군","CNTNTS_SN":"1850","CNTNTS_TITLE":"장수갈비","TOBIZ_NM":"","CNTNTS_ADRES":"강원도 고성군 현내면 한나루로 123-1","CNTNTS_ADRES2":"","CNTNTS_TELNO":"033-681-6005","CNTNTS_MENU":"한방돼지갈비, 토종돼지","REPRSNT_PERSON_NM":"","CNTNTS_PRKPLCE_AT":"N","PAY_METHD":"","CNTNTS_URL":"","CNTNTS_TXT":"","LAT":"38.4990137","LNG":"128.4249168","CNTNTS_UPDE":"2012-03-28 22:02:11.0"},{"CNTNTS_AREA":"강원","CNTNTS_AREA2":"고성군","CNTNTS_SN":"1852","CNTNTS_TITLE":"엄마손","TOBIZ_NM":"","CNTNTS_ADRES":"강원도 고성군 거진읍 거진길 12","CNTNTS_ADRES2":"","CNTNTS_TELNO":"033-682-1366","CNTNTS_MENU":"잔치뷔폐","REPRSNT_PERSON_NM":"","CNTNTS_PRKPLCE_AT":"N","PAY_METHD":"","CNTNTS_URL":"","CNTNTS_TXT":"","LAT":"38.4450611","LNG":"128.4536625","CNTNTS_UPDE":"2012-03-28 22:02:11.0"},{"CNTNTS_AREA":"강원","CNTNTS_AREA2":"고성군","CNTNTS_SN":"1854","CNTNTS_TITLE":"해맞이식당","TOBIZ_NM":"","CNTNTS_ADRES":"강원도 고성군 현내면 금강산로 367","CNTNTS_ADRES2":"","CNTNTS_TELNO":"033-682-6131","CNTNTS_MENU":"멧돼지덕(멧돼지+더덕), 산채비빔밥","REPRSNT_PERSON_NM":"","CNTNTS_PRKPLCE_AT":"N","PAY_METHD":"","CNTNTS_URL":"","CNTNTS_TXT":"","LAT":"38.506005","LNG":"128.4203717","CNTNTS_UPDE":"2012-03-28 22:02:11.0"},{"CNTNTS_AREA":"강원","CNTNTS_AREA2":"고성군","CNTNTS_SN":"1856","CNTNTS_TITLE":"소영횟집","TOBIZ_NM":"","CNTNTS_ADRES":"강원도 고성군 거진읍 거진항1길 55","CNTNTS_ADRES2":"","CNTNTS_TELNO":"033-682-1929","CNTNTS_MENU":"생선회, 매운탕, 회덮밥","REPRSNT_PERSON_NM":"","CNTNTS_PRKPLCE_AT":"N","PAY_METHD":"","CNTNTS_URL":"","CNTNTS_TXT":"","LAT":"38.4479731","LNG":"128.4635056","CNTNTS_UPDE":"2012-03-28 22:02:11.0"},{"CNTNTS_AREA":"강원","CNTNTS_AREA2":"고성군","CNTNTS_SN":"1859","CNTNTS_TITLE":"오세요분식","TOBIZ_NM":"","CNTNTS_ADRES":"강원도 고성군 거진읍 거탄진로 144-2","CNTNTS_ADRES2":"","CNTNTS_TELNO":"033-682-5237","CNTNTS_MENU":"쫄면, 돌솥비빔밥, 김밥","REPRSNT_PERSON_NM":"","CNTNTS_PRKPLCE_AT":"N","PAY_METHD":"","CNTNTS_URL":"","CNTNTS_TXT":"","LAT":"38.4473057","LNG":"128.4563263","CNTNTS_UPDE":"2012-03-28 22:02:11.0"},{"CNTNTS_AREA":"강원","CNTNTS_AREA2":"고성군","CNTNTS_SN":"1863","CNTNTS_TITLE":"풍미횟집","TOBIZ_NM":"","CNTNTS_ADRES":"강원도 고성군 거진읍 거진리 268-8","CNTNTS_ADRES2":"","CNTNTS_TELNO":"033) 682-3039","CNTNTS_MENU":"생선회, 매운탕","REPRSNT_PERSON_NM":"","CNTNTS_PRKPLCE_AT":"N","PAY_METHD":"","CNTNTS_URL":"","CNTNTS_TXT":"","LAT":"38.4480594","LNG":"128.4538703","CNTNTS_UPDE":"2012-03-28 22:02:11.0"},{"CNTNTS_AREA":"강원","CNTNTS_AREA2":"고성군","CNTNTS_SN":"1864","CNTNTS_TITLE":"영미네횟집","TOBIZ_NM":"","CNTNTS_ADRES":"강원도 고성군 죽왕면 가진해변길 121-12","CNTNTS_ADRES2":"","CNTNTS_TELNO":"033-681-1998","CNTNTS_MENU":"모듬회,생선매운탕","REPRSNT_PERSON_NM":"","CNTNTS_PRKPLCE_AT":"N","PAY_METHD":"","CNTNTS_URL":"","CNTNTS_TXT":"","LAT":"38.367748","LNG":"128.511259","CNTNTS_UPDE":"2012-03-28 22:02:11.0"},{"CNTNTS_AREA":"강원","CNTNTS_AREA2":"고성군","CNTNTS_SN":"1866","CNTNTS_TITLE":"하나실내포장마차","TOBIZ_NM":"","CNTNTS_ADRES":"강원도 고성군 거진읍 거진리 271-6","CNTNTS_ADRES2":"","CNTNTS_TELNO":"033-682-5594","CNTNTS_MENU":"생선회, 매운탕","REPRSNT_PERSON_NM":"","CNTNTS_PRKPLCE_AT":"N","PAY_METHD":"","CNTNTS_URL":"","CNTNTS_TXT":"","LAT":"38.4480366","LNG":"128.4537201","CNTNTS_UPDE":"2012-03-28 22:02:11.0"},{"CNTNTS_AREA":"강원","CNTNTS_AREA2":"고성군","CNTNTS_SN":"1867","CNTNTS_TITLE":"한중관","TOBIZ_NM":"","CNTNTS_ADRES":"강원도 고성군 거진읍 거진리 248","CNTNTS_ADRES2":"","CNTNTS_TELNO":"033-682-1203","CNTNTS_MENU":"자장면, 짬뽕","REPRSNT_PERSON_NM":"","CNTNTS_PRKPLCE_AT":"N","PAY_METHD":"","CNTNTS_URL":"","CNTNTS_TXT":"","LAT":"38.4492853","LNG":"128.4551244","CNTNTS_UPDE":"2012-03-28 22:02:11.0"},{"CNTNTS_AREA":"강원","CNTNTS_AREA2":"고성군","CNTNTS_SN":"1868","CNTNTS_TITLE":"파도횟집","TOBIZ_NM":"","CNTNTS_ADRES":"강원 고성군 토성면 아야진해변길 76","CNTNTS_ADRES2":"","CNTNTS_TELNO":"033-631-3312","CNTNTS_MENU":"모듬회","REPRSNT_PERSON_NM":"","CNTNTS_PRKPLCE_AT":"N","PAY_METHD":"","CNTNTS_URL":"","CNTNTS_TXT":"","LAT":"38.2722288","LNG":"128.5563577","CNTNTS_UPDE":"2012-03-28 22:02:11.0"},{"CNTNTS_AREA":"강원","CNTNTS_AREA2":"고성군","CNTNTS_SN":"1871","CNTNTS_TITLE":"화진면옥","TOBIZ_NM":"","CNTNTS_ADRES":"강원도 고성군 현내면 금강산로 112","CNTNTS_ADRES2":"","CNTNTS_TELNO":"033-682-0136","CNTNTS_MENU":"막국수,냉면,산채비빔밥,돼지갈비","REPRSNT_PERSON_NM":"","CNTNTS_PRKPLCE_AT":"N","PAY_METHD":"","CNTNTS_URL":"","CNTNTS_TXT":"","LAT":"38.486459","LNG":"128.4328782","CNTNTS_UPDE":"2012-03-28 22:02:11.0"},{"CNTNTS_AREA":"강원","CNTNTS_AREA2":"고성군","CNTNTS_SN":"1872","CNTNTS_TITLE":"홍두깨식당","TOBIZ_NM":"","CNTNTS_ADRES":"강원도 고성군 거진읍 거진리 241-10","CNTNTS_ADRES2":"","CNTNTS_TELNO":"033-682-1100","CNTNTS_MENU":"쌈밥, 홍두깨삼겹살","REPRSNT_PERSON_NM":"","CNTNTS_PRKPLCE_AT":"N","PAY_METHD":"","CNTNTS_URL":"","CNTNTS_TXT":"","LAT":"38.4485119","LNG":"128.4545147","CNTNTS_UPDE":"2012-03-28 22:02:11.0"},{"CNTNTS_AREA":"강원","CNTNTS_AREA2":"고성군","CNTNTS_SN":"1873","CNTNTS_TITLE":"장충족발","TOBIZ_NM":"","CNTNTS_ADRES":"강원 고성군 거진읍 거진시장길 7","CNTNTS_ADRES2":"","CNTNTS_TELNO":"033-682-5800","CNTNTS_MENU":"족발, 보쌈","REPRSNT_PERSON_NM":"","CNTNTS_PRKPLCE_AT":"N","PAY_METHD":"","CNTNTS_URL":"","CNTNTS_TXT":"","LAT":"38.4472112","LNG":"128.4551607","CNTNTS_UPDE":"2012-03-28 22:02:11.0"},{"CNTNTS_AREA":"강원","CNTNTS_AREA2":"고성군","CNTNTS_SN":"1876","CNTNTS_TITLE":"우정횟집","TOBIZ_NM":"","CNTNTS_ADRES":"강원도 고성군 거진읍 거진시장길 7","CNTNTS_ADRES2":"","CNTNTS_TELNO":"033-682-5528","CNTNTS_MENU":"생선회, 매운탕","REPRSNT_PERSON_NM":"","CNTNTS_PRKPLCE_AT":"N","PAY_METHD":"","CNTNTS_URL":"","CNTNTS_TXT":"","LAT":"38.4472112","LNG":"128.4551607","CNTNTS_UPDE":"2012-03-28 22:02:11.0"},{"CNTNTS_AREA":"강원","CNTNTS_AREA2":"고성군","CNTNTS_SN":"1914","CNTNTS_TITLE":"호박숯불갈비","TOBIZ_NM":"","CNTNTS_ADRES":"강원도 고성군 간성읍 상리 96-6","CNTNTS_ADRES2":"","CNTNTS_TELNO":"033) 681-1233","CNTNTS_MENU":"소갈비, 돼지갈비, 오리로스, 오리주물럭, 곱창","REPRSNT_PERSON_NM":"","CNTNTS_PRKPLCE_AT":"N","PAY_METHD":"","CNTNTS_URL":"","CNTNTS_TXT":"","LAT":"38.3815628","LNG":"128.4631765","CNTNTS_UPDE":"2012-03-28 22:02:11.0"},{"CNTNTS_AREA":"강원","CNTNTS_AREA2":"고성군","CNTNTS_SN":"1916","CNTNTS_TITLE":"싱싱박수회집","TOBIZ_NM":"","CNTNTS_ADRES":"강원도 고성군 죽왕면 공현진길 44","CNTNTS_ADRES2":"","CNTNTS_TELNO":"033-632-0255","CNTNTS_MENU":"생선회일체","REPRSNT_PERSON_NM":"","CNTNTS_PRKPLCE_AT":"N","PAY_METHD":"","CNTNTS_URL":"","CNTNTS_TXT":"","LAT":"38.3556058","LNG":"128.5106862","CNTNTS_UPDE":"2012-03-28 22:02:11.0"},{"CNTNTS_AREA":"강원","CNTNTS_AREA2":"고성군","CNTNTS_SN":"1918","CNTNTS_TITLE":"해변횟집","TOBIZ_NM":"","CNTNTS_ADRES":"강원도 고성군 거진읍 거진항1길 15-1","CNTNTS_ADRES2":"","CNTNTS_TELNO":"033-682-2249","CNTNTS_MENU":"생선회, 매운탕, 회덮밥","REPRSNT_PERSON_NM":"","CNTNTS_PRKPLCE_AT":"N","PAY_METHD":"","CNTNTS_URL":"","CNTNTS_TXT":"","LAT":"38.4488566","LNG":"128.4594591","CNTNTS_UPDE":"2012-03-28 22:02:11.0"},{"CNTNTS_AREA":"강원","CNTNTS_AREA2":"고성군","CNTNTS_SN":"1919","CNTNTS_TITLE":"해맞이횟집","TOBIZ_NM":"","CNTNTS_ADRES":"강원도 고성군 거진읍 거진항1길 57","CNTNTS_ADRES2":"","CNTNTS_TELNO":"033-681-5868","CNTNTS_MENU":"생선회, 매운탕","REPRSNT_PERSON_NM":"","CNTNTS_PRKPLCE_AT":"N","PAY_METHD":"","CNTNTS_URL":"","CNTNTS_TXT":"","LAT":"38.4476688","LNG":"128.4636698","CNTNTS_UPDE":"2012-03-28 22:02:11.0"},{"CNTNTS_AREA":"강원","CNTNTS_AREA2":"고성군","CNTNTS_SN":"1922","CNTNTS_TITLE":"힘센장어마을","TOBIZ_NM":"","CNTNTS_ADRES":"강원도 고성군 간성읍 상리 96-6","CNTNTS_ADRES2":"","CNTNTS_TELNO":"033-681-1282","CNTNTS_MENU":"장어구이","REPRSNT_PERSON_NM":"","CNTNTS_PRKPLCE_AT":"N","PAY_METHD":"","CNTNTS_URL":"","CNTNTS_TXT":"","LAT":"38.3815628","LNG":"128.4631765","CNTNTS_UPDE":"2012-03-28 22:02:11.0"},{"CNTNTS_AREA":"강원","CNTNTS_AREA2":"고성군","CNTNTS_SN":"1923","CNTNTS_TITLE":"혜정이네횟집","TOBIZ_NM":"","CNTNTS_ADRES":"강원도 고성군 현내면 대진3길 28-1","CNTNTS_ADRES2":"","CNTNTS_TELNO":"033-682-5432","CNTNTS_MENU":"활어회, 우럭미역국","REPRSNT_PERSON_NM":"","CNTNTS_PRKPLCE_AT":"N","PAY_METHD":"","CNTNTS_URL":"","CNTNTS_TXT":"","LAT":"38.4976476","LNG":"128.4252332","CNTNTS_UPDE":"2012-03-28 22:02:11.0"},{"CNTNTS_AREA":"강원","CNTNTS_AREA2":"고성군","CNTNTS_SN":"1926","CNTNTS_TITLE":"화진삼계탕","TOBIZ_NM":"","CNTNTS_ADRES":"강원도 고성군 간성읍 간성로 17","CNTNTS_ADRES2":"","CNTNTS_TELNO":"033-681-4170","CNTNTS_MENU":"삼계탕, 추어탕","REPRSNT_PERSON_NM":"","CNTNTS_PRKPLCE_AT":"N","PAY_METHD":"","CNTNTS_URL":"","CNTNTS_TXT":"","LAT":"38.3785131","LNG":"128.4731042","CNTNTS_UPDE":"2012-03-28 22:02:11.0"},{"CNTNTS_AREA":"강원","CNTNTS_AREA2":"고성군","CNTNTS_SN":"1928","CNTNTS_TITLE":"황금식당","TOBIZ_NM":"","CNTNTS_ADRES":"강원도 고성군 토성면 교암길 75","CNTNTS_ADRES2":"","CNTNTS_TELNO":"033-632-1482","CNTNTS_MENU":"냉면","REPRSNT_PERSON_NM":"","CNTNTS_PRKPLCE_AT":"N","PAY_METHD":"","CNTNTS_URL":"","CNTNTS_TXT":"","LAT":"38.2917833","LNG":"128.5453703","CNTNTS_UPDE":"2012-03-28 22:02:11.0"},{"CNTNTS_AREA":"강원","CNTNTS_AREA2":"고성군","CNTNTS_SN":"1929","CNTNTS_TITLE":"흥부숯불갈비","TOBIZ_NM":"","CNTNTS_ADRES":"강원도 고성군 거진읍 거진시장뒷길 16","CNTNTS_ADRES2":"","CNTNTS_TELNO":"033-681-0026","CNTNTS_MENU":"생삼겹, LA갈비, 돼지갈비, 냉소면","REPRSNT_PERSON_NM":"","CNTNTS_PRKPLCE_AT":"N","PAY_METHD":"","CNTNTS_URL":"","CNTNTS_TXT":"","LAT":"38.4481703","LNG":"128.4538481","CNTNTS_UPDE":"2012-03-28 22:02:11.0"},{"CNTNTS_AREA":"강원","CNTNTS_AREA2":"고성군","CNTNTS_SN":"1931","CNTNTS_TITLE":"황우촌","TOBIZ_NM":"","CNTNTS_ADRES":"강원도 고성군 간성읍 흘리 56-10번지","CNTNTS_ADRES2":"","CNTNTS_TELNO":"033-681-6278","CNTNTS_MENU":"황태찜","REPRSNT_PERSON_NM":"","CNTNTS_PRKPLCE_AT":"N","PAY_METHD":"","CNTNTS_URL":"","CNTNTS_TXT":"","LAT":"38.266234","LNG":"128.3754446","CNTNTS_UPDE":"2012-03-28 22:02:11.0"},{"CNTNTS_AREA":"강원","CNTNTS_AREA2":"고성군","CNTNTS_SN":"1934","CNTNTS_TITLE":"머거바!해물닭갈비","TOBIZ_NM":"","CNTNTS_ADRES":"강원도 고성군 토성면 토성로 43","CNTNTS_ADRES2":"","CNTNTS_TELNO":"033-632-0098","CNTNTS_MENU":"해물칼국수,뿅잎칼국수,뼈없는닭갈비,인삼닭갈비","REPRSNT_PERSON_NM":"","CNTNTS_PRKPLCE_AT":"N","PAY_METHD":"","CNTNTS_URL":"","CNTNTS_TXT":"","LAT":"38.2513603","LNG":"128.5662756","CNTNTS_UPDE":"2012-03-28 22:02:11.0"},{"CNTNTS_AREA":"강원","CNTNTS_AREA2":"고성군","CNTNTS_SN":"5045","CNTNTS_TITLE":"제비호식당 -도치탕","TOBIZ_NM":"","CNTNTS_ADRES":"강원도 고성군 거진읍 거진리 275-1","CNTNTS_ADRES2":"","CNTNTS_TELNO":"033-682-1970","CNTNTS_MENU":"","REPRSNT_PERSON_NM":"","CNTNTS_PRKPLCE_AT":"","PAY_METHD":"","CNTNTS_URL":"","CNTNTS_TXT":"","LAT":"38.4479495","LNG":"128.4538742","CNTNTS_UPDE":"2012-04-20 16:12:34.0"},{"CNTNTS_AREA":"강원","CNTNTS_AREA2":"고성군","CNTNTS_SN":"5050","CNTNTS_TITLE":"한식당 해금강 - 황태구이정식","TOBIZ_NM":"","CNTNTS_ADRES":"강원도 고성군 현내면 마차진리 239 금강산콘도 내","CNTNTS_ADRES2":"","CNTNTS_TELNO":"033 680-7800","CNTNTS_MENU":"","REPRSNT_PERSON_NM":"","CNTNTS_PRKPLCE_AT":"","PAY_METHD":"","CNTNTS_URL":"","CNTNTS_TXT":"","LAT":"0.0","LNG":"0.0","CNTNTS_UPDE":"2012-04-20 16:12:34.0"},{"CNTNTS_AREA":"강원","CNTNTS_AREA2":"고성군","CNTNTS_SN":"5054","CNTNTS_TITLE":"금강산횟집","TOBIZ_NM":"","CNTNTS_ADRES":"강원도 고성군 현내면 대진리 137-20","CNTNTS_ADRES2":"","CNTNTS_TELNO":"033-682-7899","CNTNTS_MENU":"","REPRSNT_PERSON_NM":"","CNTNTS_PRKPLCE_AT":"","PAY_METHD":"","CNTNTS_URL":"","CNTNTS_TXT":"","LAT":"38.4987947","LNG":"128.4256768","CNTNTS_UPDE":"2012-04-20 16:12:34.0"},{"CNTNTS_AREA":"강원","CNTNTS_AREA2":"고성군","CNTNTS_SN":"8220","CNTNTS_TITLE":"고성 부부횟집","TOBIZ_NM":"","CNTNTS_ADRES":"강원도 고성군 죽왕면 가진리 168-9","CNTNTS_ADRES2":"","CNTNTS_TELNO":"033-681-0094","CNTNTS_MENU":"","REPRSNT_PERSON_NM":"","CNTNTS_PRKPLCE_AT":"","PAY_METHD":"","CNTNTS_URL":"","CNTNTS_TXT":"","LAT":"38.3736002","LNG":"128.5086451","CNTNTS_UPDE":"2012-11-05 11:21:23.0"},{"CNTNTS_AREA":"강원","CNTNTS_AREA2":"고성군","CNTNTS_SN":"15086","CNTNTS_TITLE":"[속초 고성 맛집]신평골 농장 기러기코스요리","TOBIZ_NM":"","CNTNTS_ADRES":"대한민국 강원도 고성군 토성면 신평골길 8-11","CNTNTS_ADRES2":"","CNTNTS_TELNO":"0336336340","CNTNTS_MENU":"","REPRSNT_PERSON_NM":"","CNTNTS_PRKPLCE_AT":"","PAY_METHD":"","CNTNTS_URL":"","CNTNTS_TXT":"","LAT":"38.2313041","LNG":"128.5052675","CNTNTS_UPDE":"2013-04-21 06:10:01.0"},{"CNTNTS_AREA":"강원","CNTNTS_AREA2":"고성군","CNTNTS_SN":"15096","CNTNTS_TITLE":"신평골 농장에서 토종닭 백숙드세요","TOBIZ_NM":"","CNTNTS_ADRES":"대한민국 강원도 고성군 토성면 신평골길 8-11","CNTNTS_ADRES2":"","CNTNTS_TELNO":"0336336340","CNTNTS_MENU":"","REPRSNT_PERSON_NM":"","CNTNTS_PRKPLCE_AT":"","PAY_METHD":"","CNTNTS_URL":"","CNTNTS_TXT":"","LAT":"38.2313041","LNG":"128.5052675","CNTNTS_UPDE":"2013-04-25 15:51:31.0"},{"CNTNTS_AREA":"강원","CNTNTS_AREA2":"고성군","CNTNTS_SN":"15140","CNTNTS_TITLE":"옛원조가진부부횟집 이성업","TOBIZ_NM":"","CNTNTS_ADRES":"강원도 고성군 죽왕면 가진리 1","CNTNTS_ADRES2":"","CNTNTS_TELNO":"033-681-1599","CNTNTS_MENU":"","REPRSNT_PERSON_NM":"","CNTNTS_PRKPLCE_AT":"","PAY_METHD":"","CNTNTS_URL":"","CNTNTS_TXT":"","LAT":"38.3728865","LNG":"128.5088724","CNTNTS_UPDE":"2013-05-16 12:13:15.0"},{"CNTNTS_AREA":"강원","CNTNTS_AREA2":"고성군","CNTNTS_SN":"15184","CNTNTS_TITLE":"[속초맛집]신평골 농장","TOBIZ_NM":"","CNTNTS_ADRES":"대한민국 강원도 고성군 토성면 신평리 468-15","CNTNTS_ADRES2":"","CNTNTS_TELNO":"0336336340","CNTNTS_MENU":"","REPRSNT_PERSON_NM":"","CNTNTS_PRKPLCE_AT":"","PAY_METHD":"","CNTNTS_URL":"","CNTNTS_TXT":"","LAT":"38.2311526","LNG":"128.5050883","CNTNTS_UPDE":"2013-06-14 16:29:35.0"},{"CNTNTS_AREA":"강원","CNTNTS_AREA2":"고성군","CNTNTS_SN":"1187","CNTNTS_TITLE":"화진포박포수가든","TOBIZ_NM":"","CNTNTS_ADRES":"강원도 고성군 현내면 화진포서길 37-33","CNTNTS_ADRES2":"","CNTNTS_TELNO":"033-682-4856","CNTNTS_MENU":"막국수,도토리냉면,시골두부, 토종농주","REPRSNT_PERSON_NM":"","CNTNTS_PRKPLCE_AT":"Y","PAY_METHD":"","CNTNTS_URL":"","CNTNTS_TXT":"","LAT":"38.4785908","LNG":"128.423111","CNTNTS_UPDE":"2013-07-02 17:35:29.0"},{"CNTNTS_AREA":"강원","CNTNTS_AREA2":"고성군","CNTNTS_SN":"28250","CNTNTS_TITLE":"고성 백촌 막국수","TOBIZ_NM":"","CNTNTS_ADRES":"강원도 고성군 토성면 백촌1길 10","CNTNTS_ADRES2":"","CNTNTS_TELNO":"033-632-4522","CNTNTS_MENU":"","REPRSNT_PERSON_NM":"","CNTNTS_PRKPLCE_AT":"","PAY_METHD":"","CNTNTS_URL":"","CNTNTS_TXT":"","LAT":"38.2929595","LNG":"128.5417735","CNTNTS_UPDE":"2014-07-15 13:08:47.0"},{"CNTNTS_AREA":"강원","CNTNTS_AREA2":"고성군","CNTNTS_SN":"15207","CNTNTS_TITLE":"[속초 맛집]신평골 농장","TOBIZ_NM":"","CNTNTS_ADRES":"대한민국 강원도 고성군 토성면 신평리 468-15","CNTNTS_ADRES2":"","CNTNTS_TELNO":"0336336340","CNTNTS_MENU":"","REPRSNT_PERSON_NM":"","CNTNTS_PRKPLCE_AT":"","PAY_METHD":"","CNTNTS_URL":"","CNTNTS_TXT":"","LAT":"38.2311526","LNG":"128.5050883","CNTNTS_UPDE":"2013-07-03 13:36:13.0"},{"CNTNTS_AREA":"강원","CNTNTS_AREA2":"고성군","CNTNTS_SN":"15269","CNTNTS_TITLE":"(속초맛집)신평골농장","TOBIZ_NM":"","CNTNTS_ADRES":"대한민국 강원도 고성군 토성면 신평리 468-15","CNTNTS_ADRES2":"","CNTNTS_TELNO":"033-633-6340","CNTNTS_MENU":"","REPRSNT_PERSON_NM":"","CNTNTS_PRKPLCE_AT":"","PAY_METHD":"","CNTNTS_URL":"","CNTNTS_TXT":"","LAT":"38.2311526","LNG":"128.5050883","CNTNTS_UPDE":"2013-08-05 12:08:56.0"},{"CNTNTS_AREA":"강원","CNTNTS_AREA2":"고성군","CNTNTS_SN":"15322","CNTNTS_TITLE":"고성 부부횟집 물회","TOBIZ_NM":"","CNTNTS_ADRES":"대한민국 강원도 고성군 죽왕면 가진리 81-5","CNTNTS_ADRES2":"","CNTNTS_TELNO":"033-681-0094","CNTNTS_MENU":"","REPRSNT_PERSON_NM":"","CNTNTS_PRKPLCE_AT":"","PAY_METHD":"","CNTNTS_URL":"","CNTNTS_TXT":"","LAT":"38.3706179","LNG":"128.5082694","CNTNTS_UPDE":"2013-08-16 11:44:21.0"},{"CNTNTS_AREA":"강원","CNTNTS_AREA2":"고성군","CNTNTS_SN":"28321","CNTNTS_TITLE":"고성군 백도 가리비 직판장","TOBIZ_NM":"","CNTNTS_ADRES":"강원도 고성군 죽왕면 문암진리 367-4","CNTNTS_ADRES2":"","CNTNTS_TELNO":"033-680-3357","CNTNTS_MENU":"","REPRSNT_PERSON_NM":"","CNTNTS_PRKPLCE_AT":"","PAY_METHD":"","CNTNTS_URL":"","CNTNTS_TXT":"","LAT":"38.3024301","LNG":"128.5421995","CNTNTS_UPDE":"2014-08-16 22:49:45.0"},{"CNTNTS_AREA":"강원","CNTNTS_AREA2":"고성군","CNTNTS_SN":"28310","CNTNTS_TITLE":"고성 얼큰하고 시원한 국수 한그릇","TOBIZ_NM":"","CNTNTS_ADRES":"강원도 고성군 토성면 용촌리 42-2","CNTNTS_ADRES2":"","CNTNTS_TELNO":"033-635-5322","CNTNTS_MENU":"","REPRSNT_PERSON_NM":"","CNTNTS_PRKPLCE_AT":"","PAY_METHD":"","CNTNTS_URL":"","CNTNTS_TXT":"","LAT":"38.2307604","LNG":"128.5796395","CNTNTS_UPDE":"2014-08-14 09:31:54.0"},{"CNTNTS_AREA":"강원","CNTNTS_AREA2":"고성군","CNTNTS_SN":"17054","CNTNTS_TITLE":"일미향","TOBIZ_NM":"","CNTNTS_ADRES":"강원도 고성군 간성읍 간성로 62","CNTNTS_ADRES2":"","CNTNTS_TELNO":"033-681-0705","CNTNTS_MENU":"짜장면, 짬뽕, 탕수육,","REPRSNT_PERSON_NM":"","CNTNTS_PRKPLCE_AT":"N","PAY_METHD":"","CNTNTS_URL":"","CNTNTS_TXT":"","LAT":"38.3795453","LNG":"128.46825","CNTNTS_UPDE":"2013-11-14 14:52:59.0"},{"CNTNTS_AREA":"강원","CNTNTS_AREA2":"고성군","CNTNTS_SN":"17037","CNTNTS_TITLE":"동해식당","TOBIZ_NM":"","CNTNTS_ADRES":"강원도 고성군 간성읍 간성로 79","CNTNTS_ADRES2":"","CNTNTS_TELNO":"033-681-2210","CNTNTS_MENU":"짜장면, 짬뽕, 탕수육, 세트메뉴,","REPRSNT_PERSON_NM":"","CNTNTS_PRKPLCE_AT":"N","PAY_METHD":"","CNTNTS_URL":"","CNTNTS_TXT":"","LAT":"38.3794083","LNG":"128.4660012","CNTNTS_UPDE":"2013-11-14 14:05:09.0"},{"CNTNTS_AREA":"강원","CNTNTS_AREA2":"고성군","CNTNTS_SN":"17065","CNTNTS_TITLE":"팔도막국수","TOBIZ_NM":"","CNTNTS_ADRES":"강원도 고성군 거진읍 거탄진로 173","CNTNTS_ADRES2":"","CNTNTS_TELNO":"033) 682-5451","CNTNTS_MENU":"막국수, 냉면","REPRSNT_PERSON_NM":"","CNTNTS_PRKPLCE_AT":"N","PAY_METHD":"","CNTNTS_URL":"","CNTNTS_TXT":"","LAT":"38.4490938","LNG":"128.4587091","CNTNTS_UPDE":"2013-11-14 16:05:55.0"},{"CNTNTS_AREA":"강원","CNTNTS_AREA2":"고성군","CNTNTS_SN":"17044","CNTNTS_TITLE":"부흥막국수","TOBIZ_NM":"","CNTNTS_ADRES":"강원도 고성군 간성읍 간성로 77-3","CNTNTS_ADRES2":"","CNTNTS_TELNO":"033-681-3292","CNTNTS_MENU":"메밀막국수, 함흥냉면, 비빔회막국수, 편육,","REPRSNT_PERSON_NM":"","CNTNTS_PRKPLCE_AT":"N","PAY_METHD":"","CNTNTS_URL":"","CNTNTS_TXT":"","LAT":"38.3792015","LNG":"128.4663604","CNTNTS_UPDE":"2013-11-14 14:27:41.0"},{"CNTNTS_AREA":"강원","CNTNTS_AREA2":"고성군","CNTNTS_SN":"17030","CNTNTS_TITLE":"금강산도식후경횟집","TOBIZ_NM":"","CNTNTS_ADRES":"강원도 고성군 죽왕면 공현진해변길 95","CNTNTS_ADRES2":"","CNTNTS_TELNO":"033-682-2832","CNTNTS_MENU":"생선회, 생선매운탕, 물회","REPRSNT_PERSON_NM":"","CNTNTS_PRKPLCE_AT":"N","PAY_METHD":"","CNTNTS_URL":"","CNTNTS_TXT":"","LAT":"38.3562077","LNG":"128.5098323","CNTNTS_UPDE":"2013-11-14 13:36:20.0"},{"CNTNTS_AREA":"강원","CNTNTS_AREA2":"고성군","CNTNTS_SN":"17028","CNTNTS_TITLE":"간성 녹각삼계탕","TOBIZ_NM":"","CNTNTS_ADRES":"강원도 고성군 간성읍 간성로 69-1","CNTNTS_ADRES2":"","CNTNTS_TELNO":"033-682-3630","CNTNTS_MENU":"황기녹각삼계탕, 녹각삼계탕,","REPRSNT_PERSON_NM":"","CNTNTS_PRKPLCE_AT":"N","PAY_METHD":"","CNTNTS_URL":"","CNTNTS_TXT":"","LAT":"38.3792452","LNG":"128.4671447","CNTNTS_UPDE":"2013-11-14 13:28:45.0"},{"CNTNTS_AREA":"강원","CNTNTS_AREA2":"고성군","CNTNTS_SN":"17033","CNTNTS_TITLE":"길서방네 칼국수","TOBIZ_NM":"","CNTNTS_ADRES":"강원도 고성군 간성읍 간성로 65-1","CNTNTS_ADRES2":"","CNTNTS_TELNO":"033-681-8253","CNTNTS_MENU":"옹심이칼국수, 손칼국수 4,000원, 장칼국수, 떡만두국, 불고기백반 4,000원","REPRSNT_PERSON_NM":"","CNTNTS_PRKPLCE_AT":"N","PAY_METHD":"","CNTNTS_URL":"","CNTNTS_TXT":"","LAT":"38.3792766","LNG":"128.467613","CNTNTS_UPDE":"2013-11-14 13:48:30.0"},{"CNTNTS_AREA":"강원","CNTNTS_AREA2":"고성군","CNTNTS_SN":"17036","CNTNTS_TITLE":"다니래 뚝배기 감자탕","TOBIZ_NM":"","CNTNTS_ADRES":"강원도 고성군 간성읍 간성로 81","CNTNTS_ADRES2":"","CNTNTS_TELNO":"033-681-0038","CNTNTS_MENU":"감자탕,","REPRSNT_PERSON_NM":"","CNTNTS_PRKPLCE_AT":"N","PAY_METHD":"","CNTNTS_URL":"","CNTNTS_TXT":"","LAT":"38.3794316","LNG":"128.4657977","CNTNTS_UPDE":"2013-11-14 13:59:02.0"},{"CNTNTS_AREA":"강원","CNTNTS_AREA2":"고성군","CNTNTS_SN":"17046","CNTNTS_TITLE":"서울설렁탕","TOBIZ_NM":"","CNTNTS_ADRES":"강원도 고성군 간성읍 고성중앙1길 7","CNTNTS_ADRES2":"","CNTNTS_TELNO":"033-681-0058","CNTNTS_MENU":"설렁탕, 도가니탕, 소머리국밥, 한우양지수육,","REPRSNT_PERSON_NM":"","CNTNTS_PRKPLCE_AT":"N","PAY_METHD":"","CNTNTS_URL":"","CNTNTS_TXT":"","LAT":"38.3797474","LNG":"128.4679388","CNTNTS_UPDE":"2013-11-14 14:35:51.0"},{"CNTNTS_AREA":"강원","CNTNTS_AREA2":"고성군","CNTNTS_SN":"17048","CNTNTS_TITLE":"소담","TOBIZ_NM":"","CNTNTS_ADRES":"강원도 고성군 간성읍 간성로 73-1","CNTNTS_ADRES2":"","CNTNTS_TELNO":"033-681-0092","CNTNTS_MENU":"삼겹살, 양념갈비, 소불고기, 대나무통정식,","REPRSNT_PERSON_NM":"","CNTNTS_PRKPLCE_AT":"N","PAY_METHD":"","CNTNTS_URL":"","CNTNTS_TXT":"","LAT":"38.3793334","LNG":"128.4667035","CNTNTS_UPDE":"2013-11-14 14:39:33.0"},{"CNTNTS_AREA":"강원","CNTNTS_AREA2":"고성군","CNTNTS_SN":"17049","CNTNTS_TITLE":"소망식당","TOBIZ_NM":"","CNTNTS_ADRES":"강원도 고성군 간성읍 간성시장1길 10","CNTNTS_ADRES2":"","CNTNTS_TELNO":"033-681-3304","CNTNTS_MENU":"추어탕, 돼지불백, 된장찌게","REPRSNT_PERSON_NM":"","CNTNTS_PRKPLCE_AT":"N","PAY_METHD":"","CNTNTS_URL":"","CNTNTS_TXT":"","LAT":"38.3799171","LNG":"128.470118","CNTNTS_UPDE":"2013-11-14 14:42:27.0"},{"CNTNTS_AREA":"강원","CNTNTS_AREA2":"고성군","CNTNTS_SN":"17051","CNTNTS_TITLE":"이조족발","TOBIZ_NM":"","CNTNTS_ADRES":"강원도 고성군 간성읍 고성중앙1길 1","CNTNTS_ADRES2":"","CNTNTS_TELNO":"033-681-2600","CNTNTS_MENU":"족발, 보쌈, 냉면, 해물칼국수, 막국수,","REPRSNT_PERSON_NM":"","CNTNTS_PRKPLCE_AT":"N","PAY_METHD":"","CNTNTS_URL":"","CNTNTS_TXT":"","LAT":"38.379797","LNG":"128.4677137","CNTNTS_UPDE":"2013-11-14 14:44:27.0"},{"CNTNTS_AREA":"강원","CNTNTS_AREA2":"고성군","CNTNTS_SN":"17052","CNTNTS_TITLE":"속초순대국집(거진읍)","TOBIZ_NM":"","CNTNTS_ADRES":"강원도 고성군 거진읍 거진시장길 14-9","CNTNTS_ADRES2":"","CNTNTS_TELNO":"033) 632-5791","CNTNTS_MENU":"소머리국밥, 순대국밥","REPRSNT_PERSON_NM":"","CNTNTS_PRKPLCE_AT":"N","PAY_METHD":"","CNTNTS_URL":"","CNTNTS_TXT":"","LAT":"38.4481015","LNG":"128.4551009","CNTNTS_UPDE":"2013-11-14 14:49:06.0"},{"CNTNTS_AREA":"강원","CNTNTS_AREA2":"고성군","CNTNTS_SN":"17055","CNTNTS_TITLE":"종로 묵은지 감자탕","TOBIZ_NM":"","CNTNTS_ADRES":"강원도 고성군 간성읍 하리 48","CNTNTS_ADRES2":"","CNTNTS_TELNO":"033-681-0093","CNTNTS_MENU":"우거지감자탕, 묵은지감자탕, 해물감자탕,","REPRSNT_PERSON_NM":"","CNTNTS_PRKPLCE_AT":"N","PAY_METHD":"","CNTNTS_URL":"","CNTNTS_TXT":"","LAT":"38.3796878","LNG":"128.4659378","CNTNTS_UPDE":"2013-11-14 14:56:33.0"},{"CNTNTS_AREA":"강원","CNTNTS_AREA2":"고성군","CNTNTS_SN":"17056","CNTNTS_TITLE":"형제식당","TOBIZ_NM":"","CNTNTS_ADRES":"강원도 고성군 간성읍 간성로 66","CNTNTS_ADRES2":"","CNTNTS_TELNO":"033-681-3546","CNTNTS_MENU":"쌈밥, 고기, 찌개,","REPRSNT_PERSON_NM":"","CNTNTS_PRKPLCE_AT":"N","PAY_METHD":"","CNTNTS_URL":"","CNTNTS_TXT":"","LAT":"38.3795918","LNG":"128.4676597","CNTNTS_UPDE":"2013-11-14 14:58:44.0"},{"CNTNTS_AREA":"강원","CNTNTS_AREA2":"고성군","CNTNTS_SN":"17057","CNTNTS_TITLE":"흥부순대국","TOBIZ_NM":"","CNTNTS_ADRES":"강원도 고성군 간성읍 간성로 65-1","CNTNTS_ADRES2":"","CNTNTS_TELNO":"033-681-2723","CNTNTS_MENU":"순대국, 우거지순대국, 소머리국밥, 선지해장국,","REPRSNT_PERSON_NM":"","CNTNTS_PRKPLCE_AT":"N","PAY_METHD":"","CNTNTS_URL":"","CNTNTS_TXT":"","LAT":"38.3792766","LNG":"128.467613","CNTNTS_UPDE":"2013-11-14 15:01:43.0"},{"CNTNTS_AREA":"강원","CNTNTS_AREA2":"고성군","CNTNTS_SN":"17041","CNTNTS_TITLE":"별미 순대국","TOBIZ_NM":"","CNTNTS_ADRES":"강원도 고성군 간성읍 하리 23-1","CNTNTS_ADRES2":"","CNTNTS_TELNO":"033-681-8090","CNTNTS_MENU":"순대국,","REPRSNT_PERSON_NM":"","CNTNTS_PRKPLCE_AT":"N","PAY_METHD":"","CNTNTS_URL":"","CNTNTS_TXT":"","LAT":"38.3795153","LNG":"128.4660649","CNTNTS_UPDE":"2013-11-14 14:18:43.0"},{"CNTNTS_AREA":"강원","CNTNTS_AREA2":"고성군","CNTNTS_SN":"17061","CNTNTS_TITLE":"진부령휴게소","TOBIZ_NM":"","CNTNTS_ADRES":"강원도 고성군 간성읍 진부령로 1000","CNTNTS_ADRES2":"","CNTNTS_TELNO":"033) 681-6111","CNTNTS_MENU":"황태구이","REPRSNT_PERSON_NM":"","CNTNTS_PRKPLCE_AT":"N","PAY_METHD":"","CNTNTS_URL":"","CNTNTS_TXT":"","LAT":"38.2852272","LNG":"128.3604939","CNTNTS_UPDE":"2013-11-14 15:27:37.0"},{"CNTNTS_AREA":"강원","CNTNTS_AREA2":"고성군","CNTNTS_SN":"17063","CNTNTS_TITLE":"처갓집양념통닭","TOBIZ_NM":"","CNTNTS_ADRES":"강원도 고성군 거진읍 거탄진로129번길 9-2","CNTNTS_ADRES2":"","CNTNTS_TELNO":"033) 682-4292","CNTNTS_MENU":"후라이드, 양념치킨","REPRSNT_PERSON_NM":"","CNTNTS_PRKPLCE_AT":"N","PAY_METHD":"","CNTNTS_URL":"","CNTNTS_TXT":"","LAT":"0.0","LNG":"0.0","CNTNTS_UPDE":"2013-11-14 15:49:08.0"},{"CNTNTS_AREA":"강원","CNTNTS_AREA2":"고성군","CNTNTS_SN":"17068","CNTNTS_TITLE":"화진포박포수가든","TOBIZ_NM":"","CNTNTS_ADRES":"강원도 고성군 현내면 화포서길 76","CNTNTS_ADRES2":"","CNTNTS_TELNO":"033- 682-4856","CNTNTS_MENU":"막국수, 토속농주, 편육, 토종닭","REPRSNT_PERSON_NM":"","CNTNTS_PRKPLCE_AT":"N","PAY_METHD":"","CNTNTS_URL":"","CNTNTS_TXT":"","LAT":"0.0","LNG":"0.0","CNTNTS_UPDE":"2013-11-14 16:19:10.0"},{"CNTNTS_AREA":"강원","CNTNTS_AREA2":"고성군","CNTNTS_SN":"17060","CNTNTS_TITLE":"정하횟집","TOBIZ_NM":"","CNTNTS_ADRES":"강원도 고성군 현내면 한나루로 122","CNTNTS_ADRES2":"","CNTNTS_TELNO":"033-681-4709","CNTNTS_MENU":"생선회, 매운탕","REPRSNT_PERSON_NM":"","CNTNTS_PRKPLCE_AT":"N","PAY_METHD":"","CNTNTS_URL":"","CNTNTS_TXT":"","LAT":"38.4988206","LNG":"128.4252459","CNTNTS_UPDE":"2013-11-14 15:22:31.0"}]}