{"DESCRIPTION":{"CNTNTS_AREA":"지자체","CNTNTS_AREA2":"시군","CNTNTS_SN":"번호","CNTNTS_TITLE":"업소명","TOBIZ_NM":"업종명","CNTNTS_ADRES":"소재지도로명주소","CNTNTS_ADRES2":"소재지지번주소","CNTNTS_TELNO":"연락처","CNTNTS_MENU":"주요메뉴","REPRSNT_PERSON_NM":"대표자명","CNTNTS_PRKPLCE_AT":"주차장보유여부","PAY_METHD":"결제방법","CNTNTS_URL":"홈페이지주소","CNTNTS_TXT":"주변관광정보","LAT":"경도(WGS84좌표)","LNG":"위도(WGS84좌표)","CNTNTS_UPDE":"데이터기준일자"},"DATA":[{"CNTNTS_AREA":"강원","CNTNTS_AREA2":"정선군","CNTNTS_SN":"5551","CNTNTS_TITLE":"토박이식당","TOBIZ_NM":"","CNTNTS_ADRES":"강원 정선군 고한읍 고한로 149-1","CNTNTS_ADRES2":"","CNTNTS_TELNO":"033-591-7729","CNTNTS_MENU":"생태찌개,도루묵찌개,대구탕,곰치국,재첩국","REPRSNT_PERSON_NM":"","CNTNTS_PRKPLCE_AT":"N","PAY_METHD":"","CNTNTS_URL":"","CNTNTS_TXT":"","LAT":"37.2015048","LNG":"128.8529057","CNTNTS_UPDE":"2012-04-23 13:59:50.0"},{"CNTNTS_AREA":"강원","CNTNTS_AREA2":"정선군","CNTNTS_SN":"5552","CNTNTS_TITLE":"청정횟집","TOBIZ_NM":"","CNTNTS_ADRES":"강원 정선군 고한읍 고한4길 36-1","CNTNTS_ADRES2":"","CNTNTS_TELNO":"033-592-9256","CNTNTS_MENU":"광어,우럭,모듬회,조개구이,해물모듬,생선초밥,회덮밥","REPRSNT_PERSON_NM":"","CNTNTS_PRKPLCE_AT":"N","PAY_METHD":"","CNTNTS_URL":"","CNTNTS_TXT":"","LAT":"37.2012402","LNG":"128.854098","CNTNTS_UPDE":"2012-04-23 14:02:51.0"},{"CNTNTS_AREA":"강원","CNTNTS_AREA2":"정선군","CNTNTS_SN":"5555","CNTNTS_TITLE":"토산식당","TOBIZ_NM":"","CNTNTS_ADRES":"강원 정선군 고한읍 고한로 153-1","CNTNTS_ADRES2":"","CNTNTS_TELNO":"033-591-7718","CNTNTS_MENU":"뼈해장국,선지해장국,김치찌개,된장찌개,청국장","REPRSNT_PERSON_NM":"","CNTNTS_PRKPLCE_AT":"N","PAY_METHD":"","CNTNTS_URL":"","CNTNTS_TXT":"","LAT":"37.2012012","LNG":"128.8532684","CNTNTS_UPDE":"2012-04-23 15:07:50.0"},{"CNTNTS_AREA":"강원","CNTNTS_AREA2":"정선군","CNTNTS_SN":"5556","CNTNTS_TITLE":"토지박","TOBIZ_NM":"","CNTNTS_ADRES":"강원 정선군 여량면 서동로 2939-3","CNTNTS_ADRES2":"","CNTNTS_TELNO":"033-562-5880","CNTNTS_MENU":"호프,커피,레일바이크,아우라지","REPRSNT_PERSON_NM":"","CNTNTS_PRKPLCE_AT":"N","PAY_METHD":"","CNTNTS_URL":"","CNTNTS_TXT":"","LAT":"37.472625","LNG":"128.7258266","CNTNTS_UPDE":"2012-04-23 15:12:50.0"},{"CNTNTS_AREA":"강원","CNTNTS_AREA2":"정선군","CNTNTS_SN":"5557","CNTNTS_TITLE":"풀잎사랑","TOBIZ_NM":"","CNTNTS_ADRES":"강원 정선군 정선읍 칠현로 1915","CNTNTS_ADRES2":"","CNTNTS_TELNO":"033-563-1361","CNTNTS_MENU":"곤드레밥, 콧등치기, 고등어조림, 칼치조림, 삼겹살, 닭내장탕, 두부전골, 초두부","REPRSNT_PERSON_NM":"","CNTNTS_PRKPLCE_AT":"N","PAY_METHD":"","CNTNTS_URL":"","CNTNTS_TXT":"","LAT":"37.3713326","LNG":"128.6695764","CNTNTS_UPDE":"2012-04-23 15:17:08.0"},{"CNTNTS_AREA":"강원","CNTNTS_AREA2":"정선군","CNTNTS_SN":"5558","CNTNTS_TITLE":"풍년식당","TOBIZ_NM":"","CNTNTS_ADRES":"강원 정선군 정선읍 5일장길 31-12","CNTNTS_ADRES2":"","CNTNTS_TELNO":"033-562-0702","CNTNTS_MENU":"닭도리탕,장터국밥, 곤드레나물밥,콧등치기국수, 만두국","REPRSNT_PERSON_NM":"","CNTNTS_PRKPLCE_AT":"N","PAY_METHD":"","CNTNTS_URL":"","CNTNTS_TXT":"","LAT":"37.3807702","LNG":"128.6642075","CNTNTS_UPDE":"2012-04-23 15:21:13.0"},{"CNTNTS_AREA":"강원","CNTNTS_AREA2":"정선군","CNTNTS_SN":"5561","CNTNTS_TITLE":"하늘바람","TOBIZ_NM":"","CNTNTS_ADRES":"강원도 정선군 남면 자뭇골길 73","CNTNTS_ADRES2":"","CNTNTS_TELNO":"033-591-7897","CNTNTS_MENU":"기본소개","REPRSNT_PERSON_NM":"","CNTNTS_PRKPLCE_AT":"N","PAY_METHD":"","CNTNTS_URL":"","CNTNTS_TXT":"","LAT":"37.2516129","LNG":"128.7732683","CNTNTS_UPDE":"2012-04-23 15:51:15.0"},{"CNTNTS_AREA":"강원","CNTNTS_AREA2":"정선군","CNTNTS_SN":"5562","CNTNTS_TITLE":"한우식당\/식육점","TOBIZ_NM":"","CNTNTS_ADRES":"강원 정선군 정선읍 5일장길 26","CNTNTS_ADRES2":"","CNTNTS_TELNO":"033-562-2767","CNTNTS_MENU":"한우암소꽃갈비살,한우암소꽃등심,한우암소불고기,갈비탕\/육개장,삼겹살\/목살","REPRSNT_PERSON_NM":"","CNTNTS_PRKPLCE_AT":"N","PAY_METHD":"","CNTNTS_URL":"","CNTNTS_TXT":"","LAT":"37.3804147","LNG":"128.6639763","CNTNTS_UPDE":"2012-04-23 15:56:21.0"},{"CNTNTS_AREA":"강원","CNTNTS_AREA2":"정선군","CNTNTS_SN":"5563","CNTNTS_TITLE":"해돋이 휴게소","TOBIZ_NM":"","CNTNTS_ADRES":"강원 정선군 남면 강원남로 5280","CNTNTS_ADRES2":"","CNTNTS_TELNO":"033-591-1877","CNTNTS_MENU":"설령탕, 수육","REPRSNT_PERSON_NM":"","CNTNTS_PRKPLCE_AT":"N","PAY_METHD":"","CNTNTS_URL":"","CNTNTS_TXT":"","LAT":"37.2502331","LNG":"128.7788001","CNTNTS_UPDE":"2012-04-23 15:59:17.0"},{"CNTNTS_AREA":"강원","CNTNTS_AREA2":"정선군","CNTNTS_SN":"5564","CNTNTS_TITLE":"행운식당","TOBIZ_NM":"","CNTNTS_ADRES":"강원 정선군 고한읍 물한리길 18","CNTNTS_ADRES2":"","CNTNTS_TELNO":"033-591-8896","CNTNTS_MENU":"","REPRSNT_PERSON_NM":"","CNTNTS_PRKPLCE_AT":"N","PAY_METHD":"","CNTNTS_URL":"","CNTNTS_TXT":"","LAT":"37.2109319","LNG":"128.8367647","CNTNTS_UPDE":"2012-04-23 16:07:00.0"},{"CNTNTS_AREA":"강원","CNTNTS_AREA2":"정선군","CNTNTS_SN":"5566","CNTNTS_TITLE":"현대참숯불","TOBIZ_NM":"","CNTNTS_ADRES":"강원 정선군 정선읍 봉양5길 40-5","CNTNTS_ADRES2":"","CNTNTS_TELNO":"033-562-5131","CNTNTS_MENU":"한우등심, 한우갈비살, 황기돼지갈비, 해물전골, 황기냉면, 곤드레나물밥","REPRSNT_PERSON_NM":"","CNTNTS_PRKPLCE_AT":"N","PAY_METHD":"","CNTNTS_URL":"","CNTNTS_TXT":"","LAT":"37.3808022","LNG":"128.6630041","CNTNTS_UPDE":"2012-04-23 16:11:31.0"},{"CNTNTS_AREA":"강원","CNTNTS_AREA2":"정선군","CNTNTS_SN":"5569","CNTNTS_TITLE":"형제식당","TOBIZ_NM":"","CNTNTS_ADRES":"강원 정선군 정선읍 5일장길 27-4","CNTNTS_ADRES2":"","CNTNTS_TELNO":"033-563-9933","CNTNTS_MENU":"국내산 한우만두국, 토종냉콩국수,손칼국수,콧등치기,보리밥","REPRSNT_PERSON_NM":"","CNTNTS_PRKPLCE_AT":"N","PAY_METHD":"","CNTNTS_URL":"","CNTNTS_TXT":"","LAT":"37.3807702","LNG":"128.6642075","CNTNTS_UPDE":"2012-04-23 16:16:53.0"},{"CNTNTS_AREA":"강원","CNTNTS_AREA2":"정선군","CNTNTS_SN":"5573","CNTNTS_TITLE":"황기닭갈비","TOBIZ_NM":"","CNTNTS_ADRES":"강원 정선군 정선읍 5일장길 31-8","CNTNTS_ADRES2":"","CNTNTS_TELNO":"033-563-0201","CNTNTS_MENU":"곤드레밥, 소머리국밥, 산채비빔밥, 콧등치기, 올챙이국수","REPRSNT_PERSON_NM":"","CNTNTS_PRKPLCE_AT":"N","PAY_METHD":"","CNTNTS_URL":"","CNTNTS_TXT":"","LAT":"37.3807702","LNG":"128.6642075","CNTNTS_UPDE":"2012-04-23 16:26:02.0"},{"CNTNTS_AREA":"강원","CNTNTS_AREA2":"정선군","CNTNTS_SN":"5574","CNTNTS_TITLE":"회동집","TOBIZ_NM":"","CNTNTS_ADRES":"강원 정선군 정선읍 5일장길 33-13","CNTNTS_ADRES2":"","CNTNTS_TELNO":"033-562-2634","CNTNTS_MENU":"곤드레밥, 콧등치기, 올챙이국수, 메밀묵, 메밀부침, 메밀전병, 녹두전, 수수부꾸미","REPRSNT_PERSON_NM":"","CNTNTS_PRKPLCE_AT":"N","PAY_METHD":"","CNTNTS_URL":"","CNTNTS_TXT":"","LAT":"37.3807702","LNG":"128.6642075","CNTNTS_UPDE":"2012-04-23 16:29:14.0"},{"CNTNTS_AREA":"강원","CNTNTS_AREA2":"정선군","CNTNTS_SN":"5581","CNTNTS_TITLE":"힐하우스카페","TOBIZ_NM":"","CNTNTS_ADRES":"정선군 고한읍 고토일길 50-7","CNTNTS_ADRES2":"","CNTNTS_TELNO":"033-591-5976","CNTNTS_MENU":"돈까스(등심,치즈),에스프레소커피,맥주,음료","REPRSNT_PERSON_NM":"","CNTNTS_PRKPLCE_AT":"N","PAY_METHD":"","CNTNTS_URL":"","CNTNTS_TXT":"","LAT":"37.2198541","LNG":"128.8401353","CNTNTS_UPDE":"2012-04-23 16:48:01.0"},{"CNTNTS_AREA":"강원","CNTNTS_AREA2":"정선군","CNTNTS_SN":"3636","CNTNTS_TITLE":"마포구이","TOBIZ_NM":"","CNTNTS_ADRES":"강원 정선군 고한읍 고한6길 15-5","CNTNTS_ADRES2":"","CNTNTS_TELNO":"033-591-5959","CNTNTS_MENU":"장충동족발보쌈,생삼겹살,돼지갈비,갈비살","REPRSNT_PERSON_NM":"","CNTNTS_PRKPLCE_AT":"N","PAY_METHD":"","CNTNTS_URL":"","CNTNTS_TXT":"","LAT":"37.2007187","LNG":"128.8544413","CNTNTS_UPDE":"2012-04-10 15:50:17.0"},{"CNTNTS_AREA":"강원","CNTNTS_AREA2":"정선군","CNTNTS_SN":"3638","CNTNTS_TITLE":"막내네집","TOBIZ_NM":"","CNTNTS_ADRES":"강원 정선군 정선읍 5일장길 38-8(저잣거리)","CNTNTS_ADRES2":"","CNTNTS_TELNO":"016-558-9952","CNTNTS_MENU":"메밀부치기,메밀전병,장떡,녹두전","REPRSNT_PERSON_NM":"","CNTNTS_PRKPLCE_AT":"N","PAY_METHD":"","CNTNTS_URL":"","CNTNTS_TXT":"","LAT":"0.0","LNG":"0.0","CNTNTS_UPDE":"2012-04-10 15:53:10.0"},{"CNTNTS_AREA":"강원","CNTNTS_AREA2":"정선군","CNTNTS_SN":"3641","CNTNTS_TITLE":"먹거리장터","TOBIZ_NM":"","CNTNTS_ADRES":"강원 정선군 정선읍 5일장길 42-5","CNTNTS_ADRES2":"","CNTNTS_TELNO":"033-563-4922","CNTNTS_MENU":"곤드레밥, 장터국밥, 더덕쌈밥","REPRSNT_PERSON_NM":"","CNTNTS_PRKPLCE_AT":"Y","PAY_METHD":"","CNTNTS_URL":"","CNTNTS_TXT":"","LAT":"37.3803031","LNG":"128.6649137","CNTNTS_UPDE":"2012-04-10 15:56:29.0"},{"CNTNTS_AREA":"강원","CNTNTS_AREA2":"정선군","CNTNTS_SN":"3642","CNTNTS_TITLE":"모퉁이식당","TOBIZ_NM":"","CNTNTS_ADRES":"강원 정선군 고한읍 고한5길 25-5","CNTNTS_ADRES2":"","CNTNTS_TELNO":"033-592-1414","CNTNTS_MENU":"닭도리탕,도루묵찌개,쇠고기전골,생태찌개,오삼불고기","REPRSNT_PERSON_NM":"","CNTNTS_PRKPLCE_AT":"N","PAY_METHD":"","CNTNTS_URL":"","CNTNTS_TXT":"","LAT":"37.2012402","LNG":"128.854098","CNTNTS_UPDE":"2012-04-10 16:00:01.0"},{"CNTNTS_AREA":"강원","CNTNTS_AREA2":"정선군","CNTNTS_SN":"3645","CNTNTS_TITLE":"물레방아","TOBIZ_NM":"","CNTNTS_ADRES":"강원도 정선군 정선읍 5일장길 37-10","CNTNTS_ADRES2":"","CNTNTS_TELNO":"033-562-3465","CNTNTS_MENU":"메밀국죽,콧등치기,만두국,칼국수","REPRSNT_PERSON_NM":"","CNTNTS_PRKPLCE_AT":"N","PAY_METHD":"","CNTNTS_URL":"","CNTNTS_TXT":"","LAT":"37.380958","LNG":"128.6646236","CNTNTS_UPDE":"2012-04-10 16:02:53.0"},{"CNTNTS_AREA":"강원","CNTNTS_AREA2":"정선군","CNTNTS_SN":"3648","CNTNTS_TITLE":"백암동식당","TOBIZ_NM":"","CNTNTS_ADRES":"강원 정선군 정선읍 5일장길 31-7","CNTNTS_ADRES2":"","CNTNTS_TELNO":"033-562-0893","CNTNTS_MENU":"소머리국밥,소내장탕,곤드레밥,콧등치기국수,올챙이국수","REPRSNT_PERSON_NM":"","CNTNTS_PRKPLCE_AT":"N","PAY_METHD":"","CNTNTS_URL":"","CNTNTS_TXT":"","LAT":"37.3807702","LNG":"128.6642075","CNTNTS_UPDE":"2012-04-10 16:06:15.0"},{"CNTNTS_AREA":"강원","CNTNTS_AREA2":"정선군","CNTNTS_SN":"3887","CNTNTS_TITLE":"정선약초시장은 공기도 몸에 좋다!! 그리고 맛있는 취떡!","TOBIZ_NM":"","CNTNTS_ADRES":"강원 정선군 정선읍 애산리 592-3","CNTNTS_ADRES2":"","CNTNTS_TELNO":"취떡: 033-562-6013","CNTNTS_MENU":"","REPRSNT_PERSON_NM":"","CNTNTS_PRKPLCE_AT":"","PAY_METHD":"","CNTNTS_URL":"","CNTNTS_TXT":"","LAT":"37.3785757","LNG":"128.6723959","CNTNTS_UPDE":"2012-04-11 17:53:41.0"},{"CNTNTS_AREA":"강원","CNTNTS_AREA2":"정선군","CNTNTS_SN":"3966","CNTNTS_TITLE":"맛과 향기에 취한다! 곤드레밥","TOBIZ_NM":"","CNTNTS_ADRES":"강원도 정선군 정선로 1314","CNTNTS_ADRES2":"","CNTNTS_TELNO":"033-563-2211","CNTNTS_MENU":"","REPRSNT_PERSON_NM":"","CNTNTS_PRKPLCE_AT":"","PAY_METHD":"","CNTNTS_URL":"","CNTNTS_TXT":"","LAT":"37.3788603","LNG":"128.6599417","CNTNTS_UPDE":"2012-04-12 15:36:07.0"},{"CNTNTS_AREA":"강원","CNTNTS_AREA2":"정선군","CNTNTS_SN":"4346","CNTNTS_TITLE":"정선 5일장의 명품 후루룩 후루룩! 콧등치기 한 사발이요~","TOBIZ_NM":"","CNTNTS_ADRES":"강원도 정선군 정선읍 봉양리 344-1","CNTNTS_ADRES2":"","CNTNTS_TELNO":"033-563-6200","CNTNTS_MENU":"","REPRSNT_PERSON_NM":"","CNTNTS_PRKPLCE_AT":"","PAY_METHD":"","CNTNTS_URL":"","CNTNTS_TXT":"","LAT":"37.3810796","LNG":"128.6647828","CNTNTS_UPDE":"2012-04-16 19:54:06.0"},{"CNTNTS_AREA":"강원","CNTNTS_AREA2":"정선군","CNTNTS_SN":"4351","CNTNTS_TITLE":"가난한 여행객들의 진수성찬, 사북 한우모리","TOBIZ_NM":"","CNTNTS_ADRES":"강원도 정선군 사북읍 사북리 366","CNTNTS_ADRES2":"","CNTNTS_TELNO":"033-591-5237","CNTNTS_MENU":"","REPRSNT_PERSON_NM":"","CNTNTS_PRKPLCE_AT":"","PAY_METHD":"","CNTNTS_URL":"","CNTNTS_TXT":"","LAT":"37.2207168","LNG":"128.8007477","CNTNTS_UPDE":"2012-04-16 20:41:51.0"},{"CNTNTS_AREA":"강원","CNTNTS_AREA2":"정선군","CNTNTS_SN":"4953","CNTNTS_TITLE":"어름치유혹","TOBIZ_NM":"","CNTNTS_ADRES":"강원 정선군 여량면 여량6길 17","CNTNTS_ADRES2":"","CNTNTS_TELNO":"033-563-6057","CNTNTS_MENU":"패스트푸드","REPRSNT_PERSON_NM":"","CNTNTS_PRKPLCE_AT":"N","PAY_METHD":"","CNTNTS_URL":"","CNTNTS_TXT":"","LAT":"37.4730015","LNG":"128.7221887","CNTNTS_UPDE":"2012-04-20 14:32:48.0"},{"CNTNTS_AREA":"강원","CNTNTS_AREA2":"정선군","CNTNTS_SN":"4956","CNTNTS_TITLE":"여량집","TOBIZ_NM":"","CNTNTS_ADRES":"강원 정선군 정선읍 5일장길 33-13","CNTNTS_ADRES2":"","CNTNTS_TELNO":"033-563-0503","CNTNTS_MENU":"콧등치기,만두국,칼국수,곤드레밥","REPRSNT_PERSON_NM":"","CNTNTS_PRKPLCE_AT":"N","PAY_METHD":"","CNTNTS_URL":"","CNTNTS_TXT":"","LAT":"37.3807702","LNG":"128.6642075","CNTNTS_UPDE":"2012-04-20 14:36:38.0"},{"CNTNTS_AREA":"강원","CNTNTS_AREA2":"정선군","CNTNTS_SN":"5075","CNTNTS_TITLE":"여치까페","TOBIZ_NM":"","CNTNTS_ADRES":"강원 정선군 여량면 노추산로 831-4","CNTNTS_ADRES2":"","CNTNTS_TELNO":"033-563-6055","CNTNTS_MENU":"돈까스, 스파게티, 커피","REPRSNT_PERSON_NM":"","CNTNTS_PRKPLCE_AT":"N","PAY_METHD":"","CNTNTS_URL":"","CNTNTS_TXT":"","LAT":"37.5173519","LNG":"128.7360458","CNTNTS_UPDE":"2012-04-20 16:23:02.0"},{"CNTNTS_AREA":"강원","CNTNTS_AREA2":"정선군","CNTNTS_SN":"5077","CNTNTS_TITLE":"역전할머니부치기","TOBIZ_NM":"","CNTNTS_ADRES":"강원 정선군 정선읍 5일장길 38-8","CNTNTS_ADRES2":"","CNTNTS_TELNO":"033-563-1158","CNTNTS_MENU":"손칼국수,만두국,콧등치기,올챙이묵,모듬전","REPRSNT_PERSON_NM":"","CNTNTS_PRKPLCE_AT":"N","PAY_METHD":"","CNTNTS_URL":"","CNTNTS_TXT":"","LAT":"37.3801475","LNG":"128.6645408","CNTNTS_UPDE":"2012-04-20 16:36:50.0"},{"CNTNTS_AREA":"강원","CNTNTS_AREA2":"정선군","CNTNTS_SN":"5079","CNTNTS_TITLE":"연탄구이다원","TOBIZ_NM":"","CNTNTS_ADRES":"강원 정선군 고한읍 고한4길 32","CNTNTS_ADRES2":"","CNTNTS_TELNO":"033-591-3242","CNTNTS_MENU":"오겹살,갈매기살,곰장어,과메기,더덕삼겹살","REPRSNT_PERSON_NM":"","CNTNTS_PRKPLCE_AT":"N","PAY_METHD":"","CNTNTS_URL":"","CNTNTS_TXT":"","LAT":"37.2015034","LNG":"128.8538385","CNTNTS_UPDE":"2012-04-20 16:39:54.0"},{"CNTNTS_AREA":"강원","CNTNTS_AREA2":"정선군","CNTNTS_SN":"5080","CNTNTS_TITLE":"영동맛집","TOBIZ_NM":"","CNTNTS_ADRES":"강원 정선군 정선읍 5일장길 31-10","CNTNTS_ADRES2":"","CNTNTS_TELNO":"033-563-0158","CNTNTS_MENU":"곤드레밥, 손칼국수,만두국,콧등치기,콩국수","REPRSNT_PERSON_NM":"","CNTNTS_PRKPLCE_AT":"N","PAY_METHD":"","CNTNTS_URL":"","CNTNTS_TXT":"","LAT":"37.3807702","LNG":"128.6642075","CNTNTS_UPDE":"2012-04-20 16:42:15.0"},{"CNTNTS_AREA":"강원","CNTNTS_AREA2":"정선군","CNTNTS_SN":"5084","CNTNTS_TITLE":"예림식당","TOBIZ_NM":"","CNTNTS_ADRES":"강원 정선군 정선읍 5일장길 37-2","CNTNTS_ADRES2":"","CNTNTS_TELNO":"033-562-0844","CNTNTS_MENU":"소머리국밥,곤드레나물밥,보리밥,콧등치기국수,만두국","REPRSNT_PERSON_NM":"","CNTNTS_PRKPLCE_AT":"N","PAY_METHD":"","CNTNTS_URL":"","CNTNTS_TXT":"","LAT":"37.3806859","LNG":"128.6646235","CNTNTS_UPDE":"2012-04-20 16:47:17.0"},{"CNTNTS_AREA":"강원","CNTNTS_AREA2":"정선군","CNTNTS_SN":"5086","CNTNTS_TITLE":"옛날그맛집","TOBIZ_NM":"","CNTNTS_ADRES":"강원도 정선군 정선읍  5일장길 38-3","CNTNTS_ADRES2":"","CNTNTS_TELNO":"033-562-1472","CNTNTS_MENU":"곤드레밥,손칼국수,만두국,메밀묵,콧등치기","REPRSNT_PERSON_NM":"","CNTNTS_PRKPLCE_AT":"N","PAY_METHD":"","CNTNTS_URL":"","CNTNTS_TXT":"","LAT":"37.3804123","LNG":"128.6647091","CNTNTS_UPDE":"2012-04-20 16:50:26.0"},{"CNTNTS_AREA":"강원","CNTNTS_AREA2":"정선군","CNTNTS_SN":"5089","CNTNTS_TITLE":"오남매식당","TOBIZ_NM":"","CNTNTS_ADRES":"강원도 정선군 고한읍  고한6길 9-7","CNTNTS_ADRES2":"","CNTNTS_TELNO":"033-592-1009","CNTNTS_MENU":"대구뽈구이(찜),대구뽈탕,장터국밥,오삼불고기,가정식백반","REPRSNT_PERSON_NM":"","CNTNTS_PRKPLCE_AT":"N","PAY_METHD":"","CNTNTS_URL":"","CNTNTS_TXT":"","LAT":"37.2012402","LNG":"128.854098","CNTNTS_UPDE":"2012-04-20 16:53:06.0"},{"CNTNTS_AREA":"강원","CNTNTS_AREA2":"정선군","CNTNTS_SN":"5091","CNTNTS_TITLE":"오복회관","TOBIZ_NM":"","CNTNTS_ADRES":"강원 정선군 고한읍 고한6길 13-3","CNTNTS_ADRES2":"","CNTNTS_TELNO":"033-591-2163","CNTNTS_MENU":"갈비살,등심,차돌박이,삼겹살,목살","REPRSNT_PERSON_NM":"","CNTNTS_PRKPLCE_AT":"N","PAY_METHD":"","CNTNTS_URL":"","CNTNTS_TXT":"","LAT":"37.2008151","LNG":"128.8542047","CNTNTS_UPDE":"2012-04-20 16:55:50.0"},{"CNTNTS_AREA":"강원","CNTNTS_AREA2":"정선군","CNTNTS_SN":"5094","CNTNTS_TITLE":"외양간 숯불갈비","TOBIZ_NM":"","CNTNTS_ADRES":"강원도 정선군 여량면 여량리 119","CNTNTS_ADRES2":"","CNTNTS_TELNO":"033-563-5088","CNTNTS_MENU":"돼지갈비,소갈매기살,한정식,곤드레밥","REPRSNT_PERSON_NM":"","CNTNTS_PRKPLCE_AT":"N","PAY_METHD":"","CNTNTS_URL":"","CNTNTS_TXT":"","LAT":"37.4720234","LNG":"128.7246088","CNTNTS_UPDE":"2012-04-20 16:58:30.0"},{"CNTNTS_AREA":"강원","CNTNTS_AREA2":"정선군","CNTNTS_SN":"5096","CNTNTS_TITLE":"원조순대국밥","TOBIZ_NM":"","CNTNTS_ADRES":"강원 정선군 사북읍 사북2길 94-1","CNTNTS_ADRES2":"","CNTNTS_TELNO":"033-592-2129","CNTNTS_MENU":"순대국밥,곤드레순대국밥,떡.만두국,술국,머리고기수육","REPRSNT_PERSON_NM":"","CNTNTS_PRKPLCE_AT":"N","PAY_METHD":"","CNTNTS_URL":"","CNTNTS_TXT":"","LAT":"0.0","LNG":"0.0","CNTNTS_UPDE":"2012-04-20 17:01:13.0"},{"CNTNTS_AREA":"강원","CNTNTS_AREA2":"정선군","CNTNTS_SN":"5097","CNTNTS_TITLE":"웰빙 농가","TOBIZ_NM":"","CNTNTS_ADRES":"강원도 정선군 정선읍 봉양7길 31","CNTNTS_ADRES2":"","CNTNTS_TELNO":"033-563-9909","CNTNTS_MENU":"삼겹살,곤드레밥","REPRSNT_PERSON_NM":"","CNTNTS_PRKPLCE_AT":"N","PAY_METHD":"","CNTNTS_URL":"","CNTNTS_TXT":"","LAT":"37.3794858","LNG":"128.6650747","CNTNTS_UPDE":"2012-04-20 17:03:55.0"},{"CNTNTS_AREA":"강원","CNTNTS_AREA2":"정선군","CNTNTS_SN":"5100","CNTNTS_TITLE":"임원수산횟집","TOBIZ_NM":"","CNTNTS_ADRES":"강원도 정선군 고한읍 고한6길 16","CNTNTS_ADRES2":"","CNTNTS_TELNO":"033-591-6600","CNTNTS_MENU":"모듬회,광어,우럭,오징어","REPRSNT_PERSON_NM":"","CNTNTS_PRKPLCE_AT":"N","PAY_METHD":"","CNTNTS_URL":"","CNTNTS_TXT":"","LAT":"37.200513","LNG":"128.8541112","CNTNTS_UPDE":"2012-04-20 17:06:02.0"},{"CNTNTS_AREA":"강원","CNTNTS_AREA2":"정선군","CNTNTS_SN":"5102","CNTNTS_TITLE":"임주식당","TOBIZ_NM":"","CNTNTS_ADRES":"강원도 정선군 고한읍 고한4길 32-1","CNTNTS_ADRES2":"","CNTNTS_TELNO":"033-591-6289","CNTNTS_MENU":"감자탕,코다리찜,두루치기,생선찜,가정식백반","REPRSNT_PERSON_NM":"","CNTNTS_PRKPLCE_AT":"N","PAY_METHD":"","CNTNTS_URL":"","CNTNTS_TXT":"","LAT":"37.2015034","LNG":"128.8538385","CNTNTS_UPDE":"2012-04-20 17:09:26.0"},{"CNTNTS_AREA":"강원","CNTNTS_AREA2":"정선군","CNTNTS_SN":"5105","CNTNTS_TITLE":"잘돼지돈까스","TOBIZ_NM":"","CNTNTS_ADRES":"강원 정선군 정선읍 5일장길 27-18","CNTNTS_ADRES2":"","CNTNTS_TELNO":"033-562-7722","CNTNTS_MENU":"잘돼지정식,히레정식,돈까스,기소야우동,오징어,제육덮밥","REPRSNT_PERSON_NM":"","CNTNTS_PRKPLCE_AT":"N","PAY_METHD":"","CNTNTS_URL":"","CNTNTS_TXT":"","LAT":"37.3810453","LNG":"128.6641535","CNTNTS_UPDE":"2012-04-20 17:12:54.0"},{"CNTNTS_AREA":"강원","CNTNTS_AREA2":"정선군","CNTNTS_SN":"5116","CNTNTS_TITLE":"장터국시","TOBIZ_NM":"","CNTNTS_ADRES":"강원 정선군 정선읍 5일장길 38-8","CNTNTS_ADRES2":"","CNTNTS_TELNO":"033-562-8241","CNTNTS_MENU":"곤드레밥,콧등치기,올챙이국수,잔치국수,모듬전","REPRSNT_PERSON_NM":"","CNTNTS_PRKPLCE_AT":"N","PAY_METHD":"","CNTNTS_URL":"","CNTNTS_TXT":"","LAT":"37.3801475","LNG":"128.6645408","CNTNTS_UPDE":"2012-04-20 17:38:32.0"},{"CNTNTS_AREA":"강원","CNTNTS_AREA2":"정선군","CNTNTS_SN":"5118","CNTNTS_TITLE":"장터식당","TOBIZ_NM":"","CNTNTS_ADRES":"강원 정선군 정선읍 봉양7길 45","CNTNTS_ADRES2":"","CNTNTS_TELNO":"033-563-8999","CNTNTS_MENU":"곤드레나물밥,산채비빔밥,장칼국수,콧등치기,황기백숙","REPRSNT_PERSON_NM":"","CNTNTS_PRKPLCE_AT":"N","PAY_METHD":"","CNTNTS_URL":"","CNTNTS_TXT":"","LAT":"37.3807611","LNG":"128.6653502","CNTNTS_UPDE":"2012-04-20 17:42:22.0"},{"CNTNTS_AREA":"강원","CNTNTS_AREA2":"정선군","CNTNTS_SN":"5119","CNTNTS_TITLE":"정가네 숯불구이","TOBIZ_NM":"","CNTNTS_ADRES":"강원 정선군 여량6길 6","CNTNTS_ADRES2":"","CNTNTS_TELNO":"033-563-8777","CNTNTS_MENU":"각종육류","REPRSNT_PERSON_NM":"","CNTNTS_PRKPLCE_AT":"N","PAY_METHD":"","CNTNTS_URL":"","CNTNTS_TXT":"","LAT":"37.4717741","LNG":"128.7224912","CNTNTS_UPDE":"2012-04-20 17:45:28.0"},{"CNTNTS_AREA":"강원","CNTNTS_AREA2":"정선군","CNTNTS_SN":"5122","CNTNTS_TITLE":"정선메밀부치기","TOBIZ_NM":"","CNTNTS_ADRES":"강원 정선군 정선읍 5일장길 38-8","CNTNTS_ADRES2":"","CNTNTS_TELNO":"010-9120-0877","CNTNTS_MENU":"모듬전,콧등치기국수,올챙이국수,만두국","REPRSNT_PERSON_NM":"","CNTNTS_PRKPLCE_AT":"N","PAY_METHD":"","CNTNTS_URL":"","CNTNTS_TXT":"","LAT":"37.3801475","LNG":"128.6645408","CNTNTS_UPDE":"2012-04-20 17:49:32.0"},{"CNTNTS_AREA":"강원","CNTNTS_AREA2":"정선군","CNTNTS_SN":"5123","CNTNTS_TITLE":"정선식당","TOBIZ_NM":"","CNTNTS_ADRES":"강원도 정선군 정선읍 봉양리 344-17","CNTNTS_ADRES2":"","CNTNTS_TELNO":"033-562-8495","CNTNTS_MENU":"도루묵찌개,된장,김치찌개,손칼국수,손만두국,오징어볶음,","REPRSNT_PERSON_NM":"","CNTNTS_PRKPLCE_AT":"N","PAY_METHD":"","CNTNTS_URL":"","CNTNTS_TXT":"","LAT":"37.380835","LNG":"128.6637418","CNTNTS_UPDE":"2012-04-20 17:55:44.0"},{"CNTNTS_AREA":"강원","CNTNTS_AREA2":"정선군","CNTNTS_SN":"4923","CNTNTS_TITLE":"아우라지식당","TOBIZ_NM":"","CNTNTS_ADRES":"강원 정선군 정선읍 5일장길 33-23","CNTNTS_ADRES2":"","CNTNTS_TELNO":"033-562-0468","CNTNTS_MENU":"산채비빔밥,곤드레밥,더덕구이백반,다슬기해장국,콧등치기국수","REPRSNT_PERSON_NM":"","CNTNTS_PRKPLCE_AT":"N","PAY_METHD":"","CNTNTS_URL":"","CNTNTS_TXT":"","LAT":"37.3809751","LNG":"128.6642952","CNTNTS_UPDE":"2012-04-20 11:37:40.0"},{"CNTNTS_AREA":"강원","CNTNTS_AREA2":"정선군","CNTNTS_SN":"4927","CNTNTS_TITLE":"알프스식당","TOBIZ_NM":"","CNTNTS_ADRES":"강원 정선군 여량면 노추산로 608","CNTNTS_ADRES2":"","CNTNTS_TELNO":"033-562-9885","CNTNTS_MENU":"황기백숙, 산더덕구이, 산채비빔밥, 된장찌개","REPRSNT_PERSON_NM":"","CNTNTS_PRKPLCE_AT":"N","PAY_METHD":"","CNTNTS_URL":"","CNTNTS_TXT":"","LAT":"37.5139464","LNG":"128.7148514","CNTNTS_UPDE":"2012-04-20 11:43:48.0"},{"CNTNTS_AREA":"강원","CNTNTS_AREA2":"정선군","CNTNTS_SN":"3651","CNTNTS_TITLE":"백운분식","TOBIZ_NM":"","CNTNTS_ADRES":"강원도 정선군 고한읍 고한4길 58-1","CNTNTS_ADRES2":"","CNTNTS_TELNO":"033-591-8569","CNTNTS_MENU":"해장국, 칼국수, 만두국, 냉면, 콩국수 등","REPRSNT_PERSON_NM":"","CNTNTS_PRKPLCE_AT":"N","PAY_METHD":"","CNTNTS_URL":"","CNTNTS_TXT":"","LAT":"37.2007999","LNG":"128.8546821","CNTNTS_UPDE":"2012-04-10 16:09:16.0"},{"CNTNTS_AREA":"강원","CNTNTS_AREA2":"정선군","CNTNTS_SN":"3654","CNTNTS_TITLE":"번개반점","TOBIZ_NM":"","CNTNTS_ADRES":"강원도 정선군 고한읍 고한리 99-8","CNTNTS_ADRES2":"","CNTNTS_TELNO":"033-591-5592","CNTNTS_MENU":"자장면, 짬뽕, 고추짬뽕, 탕수육, 팔보채","REPRSNT_PERSON_NM":"","CNTNTS_PRKPLCE_AT":"N","PAY_METHD":"","CNTNTS_URL":"","CNTNTS_TXT":"","LAT":"37.1992417","LNG":"128.8517121","CNTNTS_UPDE":"2012-04-10 16:35:26.0"},{"CNTNTS_AREA":"강원","CNTNTS_AREA2":"정선군","CNTNTS_SN":"3656","CNTNTS_TITLE":"별미집","TOBIZ_NM":"","CNTNTS_ADRES":"강원도 정선군 정선읍 5일장길 27","CNTNTS_ADRES2":"","CNTNTS_TELNO":"033-562-1474","CNTNTS_MENU":"곤드레밥,콧등치기,감자옹심이,올챙이국수,도토리묵사발","REPRSNT_PERSON_NM":"","CNTNTS_PRKPLCE_AT":"N","PAY_METHD":"","CNTNTS_URL":"","CNTNTS_TXT":"","LAT":"37.3807702","LNG":"128.6642075","CNTNTS_UPDE":"2012-04-10 16:38:16.0"},{"CNTNTS_AREA":"강원","CNTNTS_AREA2":"정선군","CNTNTS_SN":"3658","CNTNTS_TITLE":"복권가든","TOBIZ_NM":"","CNTNTS_ADRES":"강원 정선군 사북읍 사북2길 8","CNTNTS_ADRES2":"","CNTNTS_TELNO":"033-592-3864","CNTNTS_MENU":"황태해장국,생태찌개,버섯전골,곤드레밥,손칼국수,손만두국","REPRSNT_PERSON_NM":"","CNTNTS_PRKPLCE_AT":"Y","PAY_METHD":"","CNTNTS_URL":"","CNTNTS_TXT":"","LAT":"37.2273294","LNG":"128.8163386","CNTNTS_UPDE":"2012-04-10 16:43:10.0"},{"CNTNTS_AREA":"강원","CNTNTS_AREA2":"정선군","CNTNTS_SN":"3659","CNTNTS_TITLE":"성원식당","TOBIZ_NM":"","CNTNTS_ADRES":"강원 정선군 정선읍 비봉로 58-1","CNTNTS_ADRES2":"","CNTNTS_TELNO":"033-563-0439","CNTNTS_MENU":"산채비빔밥, 돌솥비빔밥,곤드레밥,콧등치기,올챙이국수","REPRSNT_PERSON_NM":"","CNTNTS_PRKPLCE_AT":"N","PAY_METHD":"","CNTNTS_URL":"","CNTNTS_TXT":"","LAT":"37.3810796","LNG":"128.6647828","CNTNTS_UPDE":"2012-04-10 16:46:39.0"},{"CNTNTS_AREA":"강원","CNTNTS_AREA2":"정선군","CNTNTS_SN":"3662","CNTNTS_TITLE":"세대집","TOBIZ_NM":"","CNTNTS_ADRES":"정선군 정선읍 5일장길 38-8","CNTNTS_ADRES2":"","CNTNTS_TELNO":"033-562-8235","CNTNTS_MENU":"콧등치기,만두국,닭발,모듬전","REPRSNT_PERSON_NM":"","CNTNTS_PRKPLCE_AT":"N","PAY_METHD":"","CNTNTS_URL":"","CNTNTS_TXT":"","LAT":"37.3801475","LNG":"128.6645408","CNTNTS_UPDE":"2012-04-10 16:50:07.0"},{"CNTNTS_AREA":"강원","CNTNTS_AREA2":"정선군","CNTNTS_SN":"3664","CNTNTS_TITLE":"세종회관","TOBIZ_NM":"","CNTNTS_ADRES":"강원도 정선군 사북읍 사북중앙로 13","CNTNTS_ADRES2":"","CNTNTS_TELNO":"033-592-5553","CNTNTS_MENU":"곤드레밥(돌솥),생선구이정식,게장백반,고등어조림,갈치조림","REPRSNT_PERSON_NM":"","CNTNTS_PRKPLCE_AT":"Y","PAY_METHD":"","CNTNTS_URL":"","CNTNTS_TXT":"","LAT":"37.2272023","LNG":"128.8160702","CNTNTS_UPDE":"2012-04-10 16:52:59.0"},{"CNTNTS_AREA":"강원","CNTNTS_AREA2":"정선군","CNTNTS_SN":"3666","CNTNTS_TITLE":"소문난맛집","TOBIZ_NM":"","CNTNTS_ADRES":"강원도 정선군 정선읍 5일장길 27","CNTNTS_ADRES2":"","CNTNTS_TELNO":"033-562-8659","CNTNTS_MENU":"순대국밥,올갱이해장국,뚝배기곤드레밥,뚝배기곤드레알밥,인삼닭도리탕","REPRSNT_PERSON_NM":"","CNTNTS_PRKPLCE_AT":"N","PAY_METHD":"","CNTNTS_URL":"","CNTNTS_TXT":"","LAT":"37.3807702","LNG":"128.6642075","CNTNTS_UPDE":"2012-04-10 16:58:39.0"},{"CNTNTS_AREA":"강원","CNTNTS_AREA2":"정선군","CNTNTS_SN":"3669","CNTNTS_TITLE":"송이네","TOBIZ_NM":"","CNTNTS_ADRES":"강원 정선군 고한읍 고한6길 9-16","CNTNTS_ADRES2":"","CNTNTS_TELNO":"033-591-9945","CNTNTS_MENU":"뼈없는닭발,돼지껍데기,산초두부,부추전,돼지곱창볶음","REPRSNT_PERSON_NM":"","CNTNTS_PRKPLCE_AT":"N","PAY_METHD":"","CNTNTS_URL":"","CNTNTS_TXT":"","LAT":"37.2010172","LNG":"128.8542937","CNTNTS_UPDE":"2012-04-10 17:09:11.0"},{"CNTNTS_AREA":"강원","CNTNTS_AREA2":"정선군","CNTNTS_SN":"3675","CNTNTS_TITLE":"순대마을","TOBIZ_NM":"","CNTNTS_ADRES":"강원 정선군 고한읍 고한6길 13-6","CNTNTS_ADRES2":"","CNTNTS_TELNO":"033-591-3303","CNTNTS_MENU":"순대국밥,뼈다귀해장국,순대전골,감자탕,모듬순대","REPRSNT_PERSON_NM":"","CNTNTS_PRKPLCE_AT":"N","PAY_METHD":"","CNTNTS_URL":"","CNTNTS_TXT":"","LAT":"37.2008292","LNG":"128.8543693","CNTNTS_UPDE":"2012-04-10 17:21:40.0"},{"CNTNTS_AREA":"강원","CNTNTS_AREA2":"정선군","CNTNTS_SN":"3677","CNTNTS_TITLE":"시골식당","TOBIZ_NM":"","CNTNTS_ADRES":"강원 정선군 고한읍 고한6길 13-9","CNTNTS_ADRES2":"","CNTNTS_TELNO":"033-591-4241","CNTNTS_MENU":"닭도리탕,생태\/동태찌개,곱창전골,각종찌개류,제육,오삼불고기","REPRSNT_PERSON_NM":"","CNTNTS_PRKPLCE_AT":"N","PAY_METHD":"","CNTNTS_URL":"","CNTNTS_TXT":"","LAT":"37.2010006","LNG":"128.8543386","CNTNTS_UPDE":"2012-04-10 17:24:28.0"},{"CNTNTS_AREA":"강원","CNTNTS_AREA2":"정선군","CNTNTS_SN":"3679","CNTNTS_TITLE":"시장분식고향찐빵","TOBIZ_NM":"","CNTNTS_ADRES":"강원 정선군 정선읍 5일장길 39","CNTNTS_ADRES2":"","CNTNTS_TELNO":"033-563-3611","CNTNTS_MENU":"찐빵,만두국,손칼국수,동태찌개 등","REPRSNT_PERSON_NM":"","CNTNTS_PRKPLCE_AT":"N","PAY_METHD":"","CNTNTS_URL":"","CNTNTS_TXT":"","LAT":"37.3806905","LNG":"128.6647579","CNTNTS_UPDE":"2012-04-10 17:27:46.0"},{"CNTNTS_AREA":"강원","CNTNTS_AREA2":"정선군","CNTNTS_SN":"3681","CNTNTS_TITLE":"시장식당","TOBIZ_NM":"","CNTNTS_ADRES":"강원 정선군 정선읍 5일장길 27-6","CNTNTS_ADRES2":"","CNTNTS_TELNO":"033-563-1246","CNTNTS_MENU":"묵은지토종닭도리탕,묵은지감자탕,한우소머리국밥,곤드레밥,만두전골","REPRSNT_PERSON_NM":"","CNTNTS_PRKPLCE_AT":"N","PAY_METHD":"","CNTNTS_URL":"","CNTNTS_TXT":"","LAT":"37.3807702","LNG":"128.6642075","CNTNTS_UPDE":"2012-04-10 17:30:27.0"},{"CNTNTS_AREA":"강원","CNTNTS_AREA2":"정선군","CNTNTS_SN":"3684","CNTNTS_TITLE":"식도락한분식","TOBIZ_NM":"","CNTNTS_ADRES":"강원도 정선군 고한읍 고한6길 11","CNTNTS_ADRES2":"","CNTNTS_TELNO":"033-591-4065","CNTNTS_MENU":"원조김밥,만두,찐빵,수제돈가스,각종찌개류,각종덮밥류","REPRSNT_PERSON_NM":"","CNTNTS_PRKPLCE_AT":"N","PAY_METHD":"","CNTNTS_URL":"","CNTNTS_TXT":"","LAT":"37.2007396","LNG":"128.8541757","CNTNTS_UPDE":"2012-04-10 17:35:11.0"},{"CNTNTS_AREA":"강원","CNTNTS_AREA2":"정선군","CNTNTS_SN":"3686","CNTNTS_TITLE":"쌍봉우리식당","TOBIZ_NM":"","CNTNTS_ADRES":"강원 정선군 화암면 화암동굴길 12-13","CNTNTS_ADRES2":"","CNTNTS_TELNO":"033-562-3360","CNTNTS_MENU":"곤드레나물밥, 산채비빔밥, 산채정식, 민물매운탕, 황기오가피백숙","REPRSNT_PERSON_NM":"","CNTNTS_PRKPLCE_AT":"N","PAY_METHD":"","CNTNTS_URL":"","CNTNTS_TXT":"","LAT":"37.3508846","LNG":"128.789601","CNTNTS_UPDE":"2012-04-10 17:38:27.0"},{"CNTNTS_AREA":"강원","CNTNTS_AREA2":"정선군","CNTNTS_SN":"3689","CNTNTS_TITLE":"아라리 매운탕","TOBIZ_NM":"","CNTNTS_ADRES":"정선군 화암면 화암동굴길 12-23","CNTNTS_ADRES2":"","CNTNTS_TELNO":"033-562-0805","CNTNTS_MENU":"매운탕, 버섯전골, 곤드레밥, 산채비빔밥","REPRSNT_PERSON_NM":"","CNTNTS_PRKPLCE_AT":"N","PAY_METHD":"","CNTNTS_URL":"","CNTNTS_TXT":"","LAT":"37.35202","LNG":"128.7901377","CNTNTS_UPDE":"2012-04-10 17:40:40.0"},{"CNTNTS_AREA":"강원","CNTNTS_AREA2":"정선군","CNTNTS_SN":"3692","CNTNTS_TITLE":"아라리분식","TOBIZ_NM":"","CNTNTS_ADRES":"강원 정선군 정선읍 5일장길 38-8","CNTNTS_ADRES2":"","CNTNTS_TELNO":"033-563-0841","CNTNTS_MENU":"떡볶이,튀김,메밀부침전병,녹두전모듬,오뎅","REPRSNT_PERSON_NM":"","CNTNTS_PRKPLCE_AT":"N","PAY_METHD":"","CNTNTS_URL":"","CNTNTS_TXT":"","LAT":"37.3801475","LNG":"128.6645408","CNTNTS_UPDE":"2012-04-10 17:46:02.0"},{"CNTNTS_AREA":"강원","CNTNTS_AREA2":"정선군","CNTNTS_SN":"3697","CNTNTS_TITLE":"아라리촌 굴피집","TOBIZ_NM":"","CNTNTS_ADRES":"강원 정선군 정선읍 애산로 37","CNTNTS_ADRES2":"","CNTNTS_TELNO":"033-563-1361","CNTNTS_MENU":"곤드레나물밥, 두부전골, 콧등치기","REPRSNT_PERSON_NM":"","CNTNTS_PRKPLCE_AT":"N","PAY_METHD":"","CNTNTS_URL":"","CNTNTS_TXT":"","LAT":"37.3749581","LNG":"128.6712459","CNTNTS_UPDE":"2012-04-10 17:52:36.0"},{"CNTNTS_AREA":"강원","CNTNTS_AREA2":"정선군","CNTNTS_SN":"3705","CNTNTS_TITLE":"아랑맛집","TOBIZ_NM":"","CNTNTS_ADRES":"강원도 정선군 정선읍 비봉로 48-1","CNTNTS_ADRES2":"","CNTNTS_TELNO":"033-563-0016","CNTNTS_MENU":"설렁탕,사골만두국,한우수육,황기닭백숙,더덕구이","REPRSNT_PERSON_NM":"","CNTNTS_PRKPLCE_AT":"N","PAY_METHD":"","CNTNTS_URL":"","CNTNTS_TXT":"","LAT":"37.3810544","LNG":"128.6636646","CNTNTS_UPDE":"2012-04-10 18:05:09.0"},{"CNTNTS_AREA":"강원","CNTNTS_AREA2":"정선군","CNTNTS_SN":"3709","CNTNTS_TITLE":"아리랑맛집","TOBIZ_NM":"","CNTNTS_ADRES":"강원도 정선군 정선읍 5일장길 27-10","CNTNTS_ADRES2":"","CNTNTS_TELNO":"033-563-1050","CNTNTS_MENU":"곤드레밥,콧등치기,도토리묵,산초두부,묵사발","REPRSNT_PERSON_NM":"","CNTNTS_PRKPLCE_AT":"N","PAY_METHD":"","CNTNTS_URL":"","CNTNTS_TXT":"","LAT":"37.3807702","LNG":"128.6642075","CNTNTS_UPDE":"2012-04-10 18:08:36.0"},{"CNTNTS_AREA":"강원","CNTNTS_AREA2":"정선군","CNTNTS_SN":"3718","CNTNTS_TITLE":"아리랑식당","TOBIZ_NM":"","CNTNTS_ADRES":"강원 정선군 정선읍 5일장길 31-14","CNTNTS_ADRES2":"","CNTNTS_TELNO":"033-562-9054","CNTNTS_MENU":"곤드레밥,콧등치기,감자옹심이,산채비빔밥,더덕구이","REPRSNT_PERSON_NM":"","CNTNTS_PRKPLCE_AT":"N","PAY_METHD":"","CNTNTS_URL":"","CNTNTS_TXT":"","LAT":"37.3807702","LNG":"128.6642075","CNTNTS_UPDE":"2012-04-10 18:14:29.0"},{"CNTNTS_AREA":"강원","CNTNTS_AREA2":"정선군","CNTNTS_SN":"3409","CNTNTS_TITLE":"국향","TOBIZ_NM":"","CNTNTS_ADRES":"강원 정선군 정선읍 애산리 432-1","CNTNTS_ADRES2":"","CNTNTS_TELNO":"033-563-9967","CNTNTS_MENU":"한정식(곤드레정식, 황기산채비빔밥). 생약초건강밥","REPRSNT_PERSON_NM":"","CNTNTS_PRKPLCE_AT":"Y","PAY_METHD":"","CNTNTS_URL":"","CNTNTS_TXT":"","LAT":"37.3840541","LNG":"128.6732263","CNTNTS_UPDE":"2012-04-07 21:46:22.0"},{"CNTNTS_AREA":"강원","CNTNTS_AREA2":"정선군","CNTNTS_SN":"3410","CNTNTS_TITLE":"정선황기숯불","TOBIZ_NM":"","CNTNTS_ADRES":"강원 정선군 정선읍 녹송로 75","CNTNTS_ADRES2":"","CNTNTS_TELNO":"033-563-5292","CNTNTS_MENU":"황기삽겹살 1인분 12,000원 \/양념소갈비 1인분 25,000원","REPRSNT_PERSON_NM":"","CNTNTS_PRKPLCE_AT":"N","PAY_METHD":"","CNTNTS_URL":"","CNTNTS_TXT":"","LAT":"37.3837172","LNG":"128.6706645","CNTNTS_UPDE":"2012-04-07 21:54:39.0"},{"CNTNTS_AREA":"강원","CNTNTS_AREA2":"정선군","CNTNTS_SN":"3411","CNTNTS_TITLE":"정선골황기보쌈","TOBIZ_NM":"","CNTNTS_ADRES":"강원 정선군 정선읍 펼치기 정선로 1367","CNTNTS_ADRES2":"","CNTNTS_TELNO":"033-563-8114","CNTNTS_MENU":"황기보쌈, 황기백숙, 산채정식","REPRSNT_PERSON_NM":"","CNTNTS_PRKPLCE_AT":"Y","PAY_METHD":"","CNTNTS_URL":"","CNTNTS_TXT":"","LAT":"0.0","LNG":"0.0","CNTNTS_UPDE":"2012-04-07 22:01:35.0"},{"CNTNTS_AREA":"강원","CNTNTS_AREA2":"정선군","CNTNTS_SN":"3412","CNTNTS_TITLE":"동호식당","TOBIZ_NM":"","CNTNTS_ADRES":"강원 정선군 정선읍 정선로 1362","CNTNTS_ADRES2":"","CNTNTS_TELNO":"033-562-5204","CNTNTS_MENU":"산채정식, 곤드레밥, 올갱이국","REPRSNT_PERSON_NM":"","CNTNTS_PRKPLCE_AT":"Y","PAY_METHD":"","CNTNTS_URL":"","CNTNTS_TXT":"","LAT":"37.3797521","LNG":"128.6651493","CNTNTS_UPDE":"2012-04-07 22:07:25.0"},{"CNTNTS_AREA":"강원","CNTNTS_AREA2":"정선군","CNTNTS_SN":"3413","CNTNTS_TITLE":"정선황기막국수","TOBIZ_NM":"","CNTNTS_ADRES":"강원 정선군 정선읍 정선로 1359","CNTNTS_ADRES2":"","CNTNTS_TELNO":"033-563-0563","CNTNTS_MENU":"정선황기막국수, 비빔막국수, 쟁반막국수","REPRSNT_PERSON_NM":"","CNTNTS_PRKPLCE_AT":"N","PAY_METHD":"","CNTNTS_URL":"","CNTNTS_TXT":"","LAT":"37.3799976","LNG":"128.6650792","CNTNTS_UPDE":"2012-04-07 22:12:45.0"},{"CNTNTS_AREA":"강원","CNTNTS_AREA2":"정선군","CNTNTS_SN":"3414","CNTNTS_TITLE":"한치식당","TOBIZ_NM":"","CNTNTS_ADRES":"강원 정선군 정선읍 녹송1길 32","CNTNTS_ADRES2":"","CNTNTS_TELNO":"033-562-1068","CNTNTS_MENU":"황기한방족발,감자옹심이,콧등치기,촌두부,청국장","REPRSNT_PERSON_NM":"","CNTNTS_PRKPLCE_AT":"Y","PAY_METHD":"","CNTNTS_URL":"","CNTNTS_TXT":"","LAT":"37.3832567","LNG":"128.672117","CNTNTS_UPDE":"2012-04-07 22:16:52.0"},{"CNTNTS_AREA":"강원","CNTNTS_AREA2":"정선군","CNTNTS_SN":"3415","CNTNTS_TITLE":"동박골식당","TOBIZ_NM":"","CNTNTS_ADRES":"강원 정선군 정선읍 정선로 1312-1","CNTNTS_ADRES2":"","CNTNTS_TELNO":"033-563-2211","CNTNTS_MENU":"곤드레가마솥, 곤드레나물밥, 곤드레돌솥밥, 곤드레황기제육, 곤드레정식","REPRSNT_PERSON_NM":"","CNTNTS_PRKPLCE_AT":"N","PAY_METHD":"","CNTNTS_URL":"","CNTNTS_TXT":"","LAT":"37.3789224","LNG":"128.659809","CNTNTS_UPDE":"2012-04-07 22:23:07.0"},{"CNTNTS_AREA":"강원","CNTNTS_AREA2":"정선군","CNTNTS_SN":"3416","CNTNTS_TITLE":"할머니횟집","TOBIZ_NM":"","CNTNTS_ADRES":"강원 정선군 동면 소금강로 80-23","CNTNTS_ADRES2":"","CNTNTS_TELNO":"033-563-2785~6","CNTNTS_MENU":"향어백숙, 송어회, 송어비빔회","REPRSNT_PERSON_NM":"","CNTNTS_PRKPLCE_AT":"Y","PAY_METHD":"","CNTNTS_URL":"","CNTNTS_TXT":"","LAT":"0.0","LNG":"0.0","CNTNTS_UPDE":"2012-04-07 22:29:08.0"},{"CNTNTS_AREA":"강원","CNTNTS_AREA2":"정선군","CNTNTS_SN":"3418","CNTNTS_TITLE":"대운식당민박","TOBIZ_NM":"","CNTNTS_ADRES":"강원도 정선군 여량면 중동길 38","CNTNTS_ADRES2":"","CNTNTS_TELNO":"033-562-5041","CNTNTS_MENU":"곤드레나물밥,황기백숙,산채정식","REPRSNT_PERSON_NM":"","CNTNTS_PRKPLCE_AT":"Y","PAY_METHD":"","CNTNTS_URL":"http:\/\/www.gujeol.com\/mindaewoon.htm","CNTNTS_TXT":"","LAT":"37.5188653","LNG":"128.7401547","CNTNTS_UPDE":"2012-04-07 22:41:38.0"},{"CNTNTS_AREA":"강원","CNTNTS_AREA2":"정선군","CNTNTS_SN":"3429","CNTNTS_TITLE":"동해동태찜 전문점","TOBIZ_NM":"","CNTNTS_ADRES":"강원도 정선군 정선읍 정선로 1371-3","CNTNTS_ADRES2":"","CNTNTS_TELNO":"033-562-9984","CNTNTS_MENU":"동태찜, 동태탕, 동태전골","REPRSNT_PERSON_NM":"","CNTNTS_PRKPLCE_AT":"Y","PAY_METHD":"","CNTNTS_URL":"","CNTNTS_TXT":"","LAT":"37.380156","LNG":"128.6662301","CNTNTS_UPDE":"2012-04-08 13:19:45.0"},{"CNTNTS_AREA":"강원","CNTNTS_AREA2":"정선군","CNTNTS_SN":"3430","CNTNTS_TITLE":"만항할매닭집","TOBIZ_NM":"","CNTNTS_ADRES":"강원 정선군 고한읍 고한리 214","CNTNTS_ADRES2":"","CNTNTS_TELNO":"033-591-3136","CNTNTS_MENU":"닭도리탕(40,000원) , 황기백숙(35,000원), 옻닭(40,000원) , 황기오리백숙(40,000원), 산채비빔밥(5,000원)","REPRSNT_PERSON_NM":"","CNTNTS_PRKPLCE_AT":"N","PAY_METHD":"","CNTNTS_URL":"","CNTNTS_TXT":"","LAT":"37.1599248","LNG":"128.9013935","CNTNTS_UPDE":"2012-04-08 13:24:50.0"},{"CNTNTS_AREA":"강원","CNTNTS_AREA2":"정선군","CNTNTS_SN":"3431","CNTNTS_TITLE":"맛고을 식당","TOBIZ_NM":"","CNTNTS_ADRES":"강원 정선군 정선읍 봉양7길 24-1","CNTNTS_ADRES2":"","CNTNTS_TELNO":"033-562-1114","CNTNTS_MENU":"냉면 : 6,000 원, 삼계탕 : 11,000 원, 곤드레나물밥 : 7,000 원, 산채비빔밥(단체주문) : 7,000 원","REPRSNT_PERSON_NM":"","CNTNTS_PRKPLCE_AT":"Y","PAY_METHD":"","CNTNTS_URL":"http:\/\/cafe.naver.com\/ariari1114","CNTNTS_TXT":"","LAT":"37.378902","LNG":"128.6650503","CNTNTS_UPDE":"2012-04-08 13:29:55.0"},{"CNTNTS_AREA":"강원","CNTNTS_AREA2":"정선군","CNTNTS_SN":"3433","CNTNTS_TITLE":"성마령","TOBIZ_NM":"","CNTNTS_ADRES":"강원 정선군 정선읍 용담길 95","CNTNTS_ADRES2":"","CNTNTS_TELNO":"033-562-0055","CNTNTS_MENU":"영양곤드레나물밥, 산채정식, 냉면","REPRSNT_PERSON_NM":"","CNTNTS_PRKPLCE_AT":"Y","PAY_METHD":"","CNTNTS_URL":"","CNTNTS_TXT":"","LAT":"37.3780512","LNG":"128.6511623","CNTNTS_UPDE":"2012-04-08 13:35:53.0"},{"CNTNTS_AREA":"강원","CNTNTS_AREA2":"정선군","CNTNTS_SN":"3434","CNTNTS_TITLE":"싸리골식당","TOBIZ_NM":"","CNTNTS_ADRES":"강원 정선군 정선읍 정선로 1312-1","CNTNTS_ADRES2":"","CNTNTS_TELNO":"033-562-4554","CNTNTS_MENU":"곤드레 나물밥, 명태찜, 도토리무침","REPRSNT_PERSON_NM":"","CNTNTS_PRKPLCE_AT":"N","PAY_METHD":"","CNTNTS_URL":"","CNTNTS_TXT":"","LAT":"37.3789224","LNG":"128.659809","CNTNTS_UPDE":"2012-04-08 13:39:36.0"},{"CNTNTS_AREA":"강원","CNTNTS_AREA2":"정선군","CNTNTS_SN":"3435","CNTNTS_TITLE":"아라리촌 주막","TOBIZ_NM":"","CNTNTS_ADRES":"강원 정선군 정선읍 애산로 37","CNTNTS_ADRES2":"","CNTNTS_TELNO":"033-563-0050","CNTNTS_MENU":"산채정식, 산채비빔밥, 곤드레나물밥, 곤드레정식","REPRSNT_PERSON_NM":"","CNTNTS_PRKPLCE_AT":"Y","PAY_METHD":"","CNTNTS_URL":"","CNTNTS_TXT":"","LAT":"37.3749581","LNG":"128.6712459","CNTNTS_UPDE":"2012-04-08 13:44:40.0"},{"CNTNTS_AREA":"강원","CNTNTS_AREA2":"정선군","CNTNTS_SN":"3436","CNTNTS_TITLE":"오리명가","TOBIZ_NM":"","CNTNTS_ADRES":"강원 정선군 정선읍 칠현로 1919","CNTNTS_ADRES2":"","CNTNTS_TELNO":"033-562-5259","CNTNTS_MENU":"곤드레나물밥, 삼겹살, 오리요리","REPRSNT_PERSON_NM":"","CNTNTS_PRKPLCE_AT":"Y","PAY_METHD":"","CNTNTS_URL":"","CNTNTS_TXT":"","LAT":"37.3716203","LNG":"128.6695271","CNTNTS_UPDE":"2012-04-08 13:50:08.0"},{"CNTNTS_AREA":"강원","CNTNTS_AREA2":"정선군","CNTNTS_SN":"3437","CNTNTS_TITLE":"이가네 식당","TOBIZ_NM":"","CNTNTS_ADRES":"강원 정선군 여량면 노추산로 764","CNTNTS_ADRES2":"","CNTNTS_TELNO":"033-562-5088","CNTNTS_MENU":"막국수, 황기백숙, 감자전, 된장찌개","REPRSNT_PERSON_NM":"","CNTNTS_PRKPLCE_AT":"Y","PAY_METHD":"","CNTNTS_URL":"http:\/\/www.gujeol.com\/gujeol-sikdang-leemakkuksu.htm","CNTNTS_TXT":"","LAT":"37.5157578","LNG":"128.7290959","CNTNTS_UPDE":"2012-04-08 13:53:48.0"},{"CNTNTS_AREA":"강원","CNTNTS_AREA2":"정선군","CNTNTS_SN":"3438","CNTNTS_TITLE":"토종 버섯마을","TOBIZ_NM":"","CNTNTS_ADRES":"강원 정선군 정선읍 봉양5길 40-1","CNTNTS_ADRES2":"","CNTNTS_TELNO":"033-563-2685","CNTNTS_MENU":"버섯마을 버섯전골,황기 삼계탕, 메일 검은 콩국수","REPRSNT_PERSON_NM":"","CNTNTS_PRKPLCE_AT":"Y","PAY_METHD":"","CNTNTS_URL":"","CNTNTS_TXT":"","LAT":"37.3808766","LNG":"128.6625847","CNTNTS_UPDE":"2012-04-08 13:58:38.0"},{"CNTNTS_AREA":"강원","CNTNTS_AREA2":"정선군","CNTNTS_SN":"3439","CNTNTS_TITLE":"감자바우","TOBIZ_NM":"","CNTNTS_ADRES":"강원 정선군 정선읍 5일장길 31-15","CNTNTS_ADRES2":"","CNTNTS_TELNO":"033-562-5481","CNTNTS_MENU":"곤드레나물밥,콧등치기,옹심이,선지해장국,묵밥","REPRSNT_PERSON_NM":"","CNTNTS_PRKPLCE_AT":"N","PAY_METHD":"","CNTNTS_URL":"","CNTNTS_TXT":"","LAT":"37.3810453","LNG":"128.6641535","CNTNTS_UPDE":"2012-04-08 14:02:08.0"},{"CNTNTS_AREA":"강원","CNTNTS_AREA2":"정선군","CNTNTS_SN":"3625","CNTNTS_TITLE":"동면집","TOBIZ_NM":"","CNTNTS_ADRES":"강원도 정선군 정선읍 5일장길 27","CNTNTS_ADRES2":"","CNTNTS_TELNO":"033-562-0506","CNTNTS_MENU":"소머리국밥,내장탕,곤드레나물밥,콧등치기,감자옹심이","REPRSNT_PERSON_NM":"","CNTNTS_PRKPLCE_AT":"N","PAY_METHD":"","CNTNTS_URL":"","CNTNTS_TXT":"","LAT":"37.3807702","LNG":"128.6642075","CNTNTS_UPDE":"2012-04-10 15:38:12.0"},{"CNTNTS_AREA":"강원","CNTNTS_AREA2":"정선군","CNTNTS_SN":"3630","CNTNTS_TITLE":"똘이분식","TOBIZ_NM":"","CNTNTS_ADRES":"강원 정선군 5일장길 38-8","CNTNTS_ADRES2":"","CNTNTS_TELNO":"033-563-3638","CNTNTS_MENU":"떡볶이,튀김,오뎅,핫도그,순대","REPRSNT_PERSON_NM":"","CNTNTS_PRKPLCE_AT":"N","PAY_METHD":"","CNTNTS_URL":"","CNTNTS_TXT":"","LAT":"37.3801475","LNG":"128.6645408","CNTNTS_UPDE":"2012-04-10 15:42:19.0"},{"CNTNTS_AREA":"강원","CNTNTS_AREA2":"정선군","CNTNTS_SN":"3507","CNTNTS_TITLE":"고가네한방설렁탕","TOBIZ_NM":"","CNTNTS_ADRES":"강원 정선군 북평면 서동로 2129","CNTNTS_ADRES2":"","CNTNTS_TELNO":"033-563-9898","CNTNTS_MENU":"한방설렁탕, 주물럭브라더스(낙지,쭈꾸미,오징어,삼겹,돼지),오리(로스,훈제,주물럭),곤드레된장찌개,김치찌개,비빔밥,냉면","REPRSNT_PERSON_NM":"","CNTNTS_PRKPLCE_AT":"N","PAY_METHD":"","CNTNTS_URL":"","CNTNTS_TXT":"","LAT":"37.4521291","LNG":"128.670331","CNTNTS_UPDE":"2012-04-09 15:41:45.0"},{"CNTNTS_AREA":"강원","CNTNTS_AREA2":"정선군","CNTNTS_SN":"3508","CNTNTS_TITLE":"고향식당","TOBIZ_NM":"","CNTNTS_ADRES":"강원 정선군 정선읍 봉양7길 42","CNTNTS_ADRES2":"","CNTNTS_TELNO":"033-563-0012","CNTNTS_MENU":"곤드레나물밥,산채비빔밥,황기민물고기매운탕,찌게백반,생삼겹살","REPRSNT_PERSON_NM":"","CNTNTS_PRKPLCE_AT":"N","PAY_METHD":"","CNTNTS_URL":"","CNTNTS_TXT":"","LAT":"37.3803184","LNG":"128.6655563","CNTNTS_UPDE":"2012-04-09 16:16:25.0"},{"CNTNTS_AREA":"강원","CNTNTS_AREA2":"정선군","CNTNTS_SN":"3509","CNTNTS_TITLE":"구미정","TOBIZ_NM":"","CNTNTS_ADRES":"강원도 정선군 정선읍 용담길 91","CNTNTS_ADRES2":"","CNTNTS_TELNO":"033-563-1779","CNTNTS_MENU":"돼지갈비","REPRSNT_PERSON_NM":"","CNTNTS_PRKPLCE_AT":"Y","PAY_METHD":"","CNTNTS_URL":"","CNTNTS_TXT":"","LAT":"37.377888","LNG":"128.6506844","CNTNTS_UPDE":"2012-04-09 16:23:40.0"},{"CNTNTS_AREA":"강원","CNTNTS_AREA2":"정선군","CNTNTS_SN":"3510","CNTNTS_TITLE":"김밥나라","TOBIZ_NM":"","CNTNTS_ADRES":"강원 정선군 고한읍 고한5길 5","CNTNTS_ADRES2":"","CNTNTS_TELNO":"033-591-8007","CNTNTS_MENU":"김밥,콩물국수,제육덮밥,순두부,부대찌개","REPRSNT_PERSON_NM":"","CNTNTS_PRKPLCE_AT":"N","PAY_METHD":"","CNTNTS_URL":"","CNTNTS_TXT":"","LAT":"37.2017187","LNG":"128.8529814","CNTNTS_UPDE":"2012-04-09 16:30:08.0"},{"CNTNTS_AREA":"강원","CNTNTS_AREA2":"정선군","CNTNTS_SN":"3511","CNTNTS_TITLE":"나전집","TOBIZ_NM":"","CNTNTS_ADRES":"강원도 정선군 정선읍 5일장길 38-8","CNTNTS_ADRES2":"","CNTNTS_TELNO":"010-2293-3733","CNTNTS_MENU":"콧등치기, 만두국,손칼국수,모듬전,올챙이묵","REPRSNT_PERSON_NM":"","CNTNTS_PRKPLCE_AT":"N","PAY_METHD":"","CNTNTS_URL":"","CNTNTS_TXT":"","LAT":"37.3801475","LNG":"128.6645408","CNTNTS_UPDE":"2012-04-09 16:35:23.0"},{"CNTNTS_AREA":"강원","CNTNTS_AREA2":"정선군","CNTNTS_SN":"3512","CNTNTS_TITLE":"낙원회관","TOBIZ_NM":"","CNTNTS_ADRES":"강원도 정선군 고한읍  고한6길 20","CNTNTS_ADRES2":"","CNTNTS_TELNO":"033-591-2510","CNTNTS_MENU":"생갈비,생등심,육회,불고기,생삼겹살,된장찌개,곰탕,육계장,된장소면","REPRSNT_PERSON_NM":"","CNTNTS_PRKPLCE_AT":"Y","PAY_METHD":"","CNTNTS_URL":"","CNTNTS_TXT":"","LAT":"37.2004592","LNG":"128.8543257","CNTNTS_UPDE":"2012-04-09 16:42:50.0"},{"CNTNTS_AREA":"강원","CNTNTS_AREA2":"정선군","CNTNTS_SN":"3513","CNTNTS_TITLE":"남대감댁산오징어물회냉면","TOBIZ_NM":"","CNTNTS_ADRES":"강원도 정선군 정선읍 애산로 179","CNTNTS_ADRES2":"","CNTNTS_TELNO":"033-563-8892","CNTNTS_MENU":"산오징어 물회, 산오징어 냉면, 양푼해물탕","REPRSNT_PERSON_NM":"","CNTNTS_PRKPLCE_AT":"Y","PAY_METHD":"","CNTNTS_URL":"","CNTNTS_TXT":"","LAT":"37.3866583","LNG":"128.6722705","CNTNTS_UPDE":"2012-04-09 16:49:51.0"},{"CNTNTS_AREA":"강원","CNTNTS_AREA2":"정선군","CNTNTS_SN":"3514","CNTNTS_TITLE":"너라면나김밥","TOBIZ_NM":"","CNTNTS_ADRES":"강원도 정선군 고한읍 고한5길 18","CNTNTS_ADRES2":"","CNTNTS_TELNO":"033-591-2213","CNTNTS_MENU":"추억의김치도시락,야채김밥,찌개,김치,된장","REPRSNT_PERSON_NM":"","CNTNTS_PRKPLCE_AT":"N","PAY_METHD":"","CNTNTS_URL":"","CNTNTS_TXT":"","LAT":"37.2013122","LNG":"128.8533654","CNTNTS_UPDE":"2012-04-09 16:52:45.0"},{"CNTNTS_AREA":"강원","CNTNTS_AREA2":"정선군","CNTNTS_SN":"3516","CNTNTS_TITLE":"노나무재식당","TOBIZ_NM":"","CNTNTS_ADRES":"강원도 정선군 사북읍 노나무재옛길 56","CNTNTS_ADRES2":"","CNTNTS_TELNO":"033-592-3333","CNTNTS_MENU":"곤드레나물밥","REPRSNT_PERSON_NM":"","CNTNTS_PRKPLCE_AT":"Y","PAY_METHD":"","CNTNTS_URL":"http:\/\/casinopension.co.kr\/","CNTNTS_TXT":"","LAT":"37.2485806","LNG":"128.8663491","CNTNTS_UPDE":"2012-04-09 16:55:08.0"},{"CNTNTS_AREA":"강원","CNTNTS_AREA2":"정선군","CNTNTS_SN":"3517","CNTNTS_TITLE":"노추산 길목 쉼터식당","TOBIZ_NM":"","CNTNTS_ADRES":"강원도 정선군 여량면 구절리 290","CNTNTS_ADRES2":"","CNTNTS_TELNO":"033-563-2877","CNTNTS_MENU":"곤드레산채비빔밥, 콧등치기, 칼국수, 황기백숙, 된장찌개, 민물매운탕","REPRSNT_PERSON_NM":"","CNTNTS_PRKPLCE_AT":"Y","PAY_METHD":"","CNTNTS_URL":"","CNTNTS_TXT":"","LAT":"37.524277","LNG":"128.7576801","CNTNTS_UPDE":"2012-04-09 16:59:41.0"},{"CNTNTS_AREA":"강원","CNTNTS_AREA2":"정선군","CNTNTS_SN":"3518","CNTNTS_TITLE":"다락가든","TOBIZ_NM":"","CNTNTS_ADRES":"강원 정선군 여량면 노추산로 842","CNTNTS_ADRES2":"","CNTNTS_TELNO":"033-562-3751","CNTNTS_MENU":"두부전골, 황기백숙, 닭도리탕,민물매운탕","REPRSNT_PERSON_NM":"","CNTNTS_PRKPLCE_AT":"Y","PAY_METHD":"","CNTNTS_URL":"","CNTNTS_TXT":"","LAT":"37.517878","LNG":"128.736646","CNTNTS_UPDE":"2012-04-09 17:04:51.0"},{"CNTNTS_AREA":"강원","CNTNTS_AREA2":"정선군","CNTNTS_SN":"3519","CNTNTS_TITLE":"다래골식당","TOBIZ_NM":"","CNTNTS_ADRES":"강원도 정선군 정선읍 봉양6길 45-1","CNTNTS_ADRES2":"","CNTNTS_TELNO":"033-563-1344","CNTNTS_MENU":"곤드레밥,메밀국수,메밀국죽,만두국,장칼국수","REPRSNT_PERSON_NM":"","CNTNTS_PRKPLCE_AT":"N","PAY_METHD":"","CNTNTS_URL":"","CNTNTS_TXT":"","LAT":"37.3818132","LNG":"128.6626742","CNTNTS_UPDE":"2012-04-09 17:07:53.0"},{"CNTNTS_AREA":"강원","CNTNTS_AREA2":"정선군","CNTNTS_SN":"3560","CNTNTS_TITLE":"다래뜰","TOBIZ_NM":"","CNTNTS_ADRES":"강원도 정선군 정선읍 가리왕산로 491","CNTNTS_ADRES2":"","CNTNTS_TELNO":"033-563-5840","CNTNTS_MENU":"곤드레나물밥,황기백숙,민물매운탕,다슬기해장국,삼겹살화로구이서바이벌","REPRSNT_PERSON_NM":"","CNTNTS_PRKPLCE_AT":"Y","PAY_METHD":"","CNTNTS_URL":"","CNTNTS_TXT":"","LAT":"37.4072471","LNG":"128.5891671","CNTNTS_UPDE":"2012-04-10 09:49:20.0"},{"CNTNTS_AREA":"강원","CNTNTS_AREA2":"정선군","CNTNTS_SN":"3601","CNTNTS_TITLE":"단골식당","TOBIZ_NM":"","CNTNTS_ADRES":"강원 정선군 정선읍 5일장길 33-23","CNTNTS_ADRES2":"","CNTNTS_TELNO":"033-562-5759","CNTNTS_MENU":"곤드레밥,콧등치기,더덕구이,소머리국밥,메밀묵","REPRSNT_PERSON_NM":"","CNTNTS_PRKPLCE_AT":"N","PAY_METHD":"","CNTNTS_URL":"","CNTNTS_TXT":"","LAT":"37.3809751","LNG":"128.6642952","CNTNTS_UPDE":"2012-04-10 15:06:48.0"},{"CNTNTS_AREA":"강원","CNTNTS_AREA2":"정선군","CNTNTS_SN":"3605","CNTNTS_TITLE":"대가촌","TOBIZ_NM":"","CNTNTS_ADRES":"강원도 정선군 정선읍 5일장길 40","CNTNTS_ADRES2":"","CNTNTS_TELNO":"033-562-0908","CNTNTS_MENU":"","REPRSNT_PERSON_NM":"","CNTNTS_PRKPLCE_AT":"N","PAY_METHD":"","CNTNTS_URL":"","CNTNTS_TXT":"","LAT":"37.3805308","LNG":"128.6647949","CNTNTS_UPDE":"2012-04-10 15:11:12.0"},{"CNTNTS_AREA":"강원","CNTNTS_AREA2":"정선군","CNTNTS_SN":"3608","CNTNTS_TITLE":"대박집","TOBIZ_NM":"","CNTNTS_ADRES":"정선군 정선읍 5일장길 37-5","CNTNTS_ADRES2":"","CNTNTS_TELNO":"033-563-8240","CNTNTS_MENU":"곤드레밥,감자옹심이,콧등치기,된장찌개,모듬전","REPRSNT_PERSON_NM":"","CNTNTS_PRKPLCE_AT":"N","PAY_METHD":"","CNTNTS_URL":"","CNTNTS_TXT":"","LAT":"37.3807702","LNG":"128.6642075","CNTNTS_UPDE":"2012-04-10 15:17:36.0"},{"CNTNTS_AREA":"강원","CNTNTS_AREA2":"정선군","CNTNTS_SN":"3611","CNTNTS_TITLE":"대숲마을","TOBIZ_NM":"","CNTNTS_ADRES":"강원 정선군 고한읍 함백산로 1675","CNTNTS_ADRES2":"","CNTNTS_TELNO":"033-591-9797","CNTNTS_MENU":"돌솥밥정식,대통밥정식,생선구이쌈밤,곤드레비빔밥","REPRSNT_PERSON_NM":"","CNTNTS_PRKPLCE_AT":"Y","PAY_METHD":"","CNTNTS_URL":"","CNTNTS_TXT":"","LAT":"37.1941633","LNG":"128.8680687","CNTNTS_UPDE":"2012-04-10 15:23:31.0"},{"CNTNTS_AREA":"강원","CNTNTS_AREA2":"정선군","CNTNTS_SN":"3614","CNTNTS_TITLE":"대정실비식당","TOBIZ_NM":"","CNTNTS_ADRES":"강원도 정선군 고한읍 고한6길 9-3","CNTNTS_ADRES2":"","CNTNTS_TELNO":"033-591-8080","CNTNTS_MENU":"한우 갈비살,한우 등심,삼겹살,목삼겹,한우 장터국밥","REPRSNT_PERSON_NM":"","CNTNTS_PRKPLCE_AT":"N","PAY_METHD":"","CNTNTS_URL":"","CNTNTS_TXT":"","LAT":"37.2009204","LNG":"128.8539716","CNTNTS_UPDE":"2012-04-10 15:27:27.0"},{"CNTNTS_AREA":"강원","CNTNTS_AREA2":"정선군","CNTNTS_SN":"3617","CNTNTS_TITLE":"대흥식당","TOBIZ_NM":"","CNTNTS_ADRES":"강원 정선군 정선읍 5일장길 37-9","CNTNTS_ADRES2":"","CNTNTS_TELNO":"033-563-1319","CNTNTS_MENU":"산채비빔밥,산나물곤드레밥,민물매운탕,돼지등갈비찜,오리주물럭,닭볶음탕","REPRSNT_PERSON_NM":"","CNTNTS_PRKPLCE_AT":"N","PAY_METHD":"","CNTNTS_URL":"","CNTNTS_TXT":"","LAT":"37.3807702","LNG":"128.6642075","CNTNTS_UPDE":"2012-04-10 15:30:47.0"},{"CNTNTS_AREA":"강원","CNTNTS_AREA2":"정선군","CNTNTS_SN":"3622","CNTNTS_TITLE":"동광식당","TOBIZ_NM":"","CNTNTS_ADRES":"강원도 정선군 정선읍 녹송3길 22-1","CNTNTS_ADRES2":"","CNTNTS_TELNO":"033-563-3100","CNTNTS_MENU":"황기왕족발, 콧등치기","REPRSNT_PERSON_NM":"","CNTNTS_PRKPLCE_AT":"Y","PAY_METHD":"","CNTNTS_URL":"","CNTNTS_TXT":"","LAT":"37.3829588","LNG":"128.6715712","CNTNTS_UPDE":"2012-04-10 15:35:24.0"},{"CNTNTS_AREA":"강원","CNTNTS_AREA2":"정선군","CNTNTS_SN":"8270","CNTNTS_TITLE":"정선 동박골","TOBIZ_NM":"","CNTNTS_ADRES":"강원도 정선군 정선읍 봉양리 232-4","CNTNTS_ADRES2":"","CNTNTS_TELNO":"033-562-2211","CNTNTS_MENU":"","REPRSNT_PERSON_NM":"","CNTNTS_PRKPLCE_AT":"","PAY_METHD":"","CNTNTS_URL":"","CNTNTS_TXT":"","LAT":"37.3791175","LNG":"128.6598751","CNTNTS_UPDE":"2012-11-13 16:04:57.0"},{"CNTNTS_AREA":"강원","CNTNTS_AREA2":"정선군","CNTNTS_SN":"28337","CNTNTS_TITLE":"아우라지 수리취떡","TOBIZ_NM":"","CNTNTS_ADRES":"강원도 정선군 여량면 여량6길 30","CNTNTS_ADRES2":"","CNTNTS_TELNO":"033-563-2000","CNTNTS_MENU":"","REPRSNT_PERSON_NM":"","CNTNTS_PRKPLCE_AT":"","PAY_METHD":"","CNTNTS_URL":"","CNTNTS_TXT":"","LAT":"37.4729818","LNG":"128.7234807","CNTNTS_UPDE":"2014-08-27 23:03:28.0"},{"CNTNTS_AREA":"강원","CNTNTS_AREA2":"정선군","CNTNTS_SN":"17734","CNTNTS_TITLE":"프로포즈","TOBIZ_NM":"","CNTNTS_ADRES":"강원도 정선군 정선읍 5일장길 42","CNTNTS_ADRES2":"","CNTNTS_TELNO":"033-562-9070","CNTNTS_MENU":"치즈돈까스, 소고기볶음밥, 돈가스+김치볶음밥, 돈까스, 오징어덮밥","REPRSNT_PERSON_NM":"","CNTNTS_PRKPLCE_AT":"N","PAY_METHD":"","CNTNTS_URL":"","CNTNTS_TXT":"","LAT":"37.3805203","LNG":"128.6648986","CNTNTS_UPDE":"2013-11-26 17:43:46.0"},{"CNTNTS_AREA":"강원","CNTNTS_AREA2":"정선군","CNTNTS_SN":"17722","CNTNTS_TITLE":"커피스토리","TOBIZ_NM":"","CNTNTS_ADRES":"강원도 정선군 여량면 노추산로 754","CNTNTS_ADRES2":"","CNTNTS_TELNO":"033-563-5112","CNTNTS_MENU":"아메리카노, 카페라떼, 핫도그, 팥빙수, 마끼야또","REPRSNT_PERSON_NM":"","CNTNTS_PRKPLCE_AT":"N","PAY_METHD":"","CNTNTS_URL":"","CNTNTS_TXT":"","LAT":"37.5159965","LNG":"128.72795","CNTNTS_UPDE":"2013-11-26 17:05:32.0"},{"CNTNTS_AREA":"강원","CNTNTS_AREA2":"정선군","CNTNTS_SN":"17561","CNTNTS_TITLE":"가보정","TOBIZ_NM":"","CNTNTS_ADRES":"강원도 정선군 고한읍 고한6길 16","CNTNTS_ADRES2":"","CNTNTS_TELNO":"033-591-0073","CNTNTS_MENU":"살치살, 생등심, 생갈빗살, 등등","REPRSNT_PERSON_NM":"","CNTNTS_PRKPLCE_AT":"N","PAY_METHD":"","CNTNTS_URL":"","CNTNTS_TXT":"","LAT":"37.200513","LNG":"128.8541112","CNTNTS_UPDE":"2013-11-22 11:14:10.0"},{"CNTNTS_AREA":"강원","CNTNTS_AREA2":"정선군","CNTNTS_SN":"17562","CNTNTS_TITLE":"강릉실비식당","TOBIZ_NM":"","CNTNTS_ADRES":"강원도 정선군 사북읍 사북중앙로 17-20","CNTNTS_ADRES2":"","CNTNTS_TELNO":"033-592-4260","CNTNTS_MENU":"한우등심, 한우특수부위모듬,삼겹살,가마솥곤드레밥,사골곰탕","REPRSNT_PERSON_NM":"","CNTNTS_PRKPLCE_AT":"N","PAY_METHD":"","CNTNTS_URL":"","CNTNTS_TXT":"","LAT":"37.2274456","LNG":"128.8168582","CNTNTS_UPDE":"2013-11-22 11:27:46.0"},{"CNTNTS_AREA":"강원","CNTNTS_AREA2":"정선군","CNTNTS_SN":"17706","CNTNTS_TITLE":"윤가네한우마을","TOBIZ_NM":"","CNTNTS_ADRES":"강원도 정선군 고한읍 고한6길 15-11","CNTNTS_ADRES2":"","CNTNTS_TELNO":"033-592-2920","CNTNTS_MENU":"등심,갈비살,삼겹살,생목살","REPRSNT_PERSON_NM":"","CNTNTS_PRKPLCE_AT":"N","PAY_METHD":"","CNTNTS_URL":"","CNTNTS_TXT":"","LAT":"37.2007205","LNG":"128.8547015","CNTNTS_UPDE":"2013-11-26 16:16:18.0"},{"CNTNTS_AREA":"강원","CNTNTS_AREA2":"정선군","CNTNTS_SN":"17686","CNTNTS_TITLE":"신동청정한우","TOBIZ_NM":"","CNTNTS_ADRES":"강원도 정선군 신동읍 예미5길 11","CNTNTS_ADRES2":"","CNTNTS_TELNO":"033-378-3780","CNTNTS_MENU":"갈비살특수부위,등심,암소모듬","REPRSNT_PERSON_NM":"","CNTNTS_PRKPLCE_AT":"Y","PAY_METHD":"","CNTNTS_URL":"","CNTNTS_TXT":"","LAT":"37.2155132","LNG":"128.6436639","CNTNTS_UPDE":"2013-11-26 14:34:07.0"},{"CNTNTS_AREA":"강원","CNTNTS_AREA2":"정선군","CNTNTS_SN":"17666","CNTNTS_TITLE":"산오징어,세꼬시,조개삼합","TOBIZ_NM":"","CNTNTS_ADRES":"강원도 정선군 정선읍 정선로 1355-1","CNTNTS_ADRES2":"","CNTNTS_TELNO":"033-563-5882","CNTNTS_MENU":"산오징어,세꼬시,활어,어패류,곤드레회덮밥","REPRSNT_PERSON_NM":"","CNTNTS_PRKPLCE_AT":"N","PAY_METHD":"","CNTNTS_URL":"","CNTNTS_TXT":"","LAT":"37.3799628","LNG":"128.6645392","CNTNTS_UPDE":"2013-11-26 13:20:59.0"},{"CNTNTS_AREA":"강원","CNTNTS_AREA2":"정선군","CNTNTS_SN":"15577","CNTNTS_TITLE":"정선 시장도 구경하고 맛집도 가고! 제일맛집","TOBIZ_NM":"","CNTNTS_ADRES":"강원도 정선군 정선읍 5일장길 38-3","CNTNTS_ADRES2":"","CNTNTS_TELNO":"033-563-0201","CNTNTS_MENU":"","REPRSNT_PERSON_NM":"","CNTNTS_PRKPLCE_AT":"","PAY_METHD":"","CNTNTS_URL":"","CNTNTS_TXT":"","LAT":"37.3804123","LNG":"128.6647091","CNTNTS_UPDE":"2013-12-09 17:27:09.0"},{"CNTNTS_AREA":"강원","CNTNTS_AREA2":"정선군","CNTNTS_SN":"19596","CNTNTS_TITLE":"한우리식당","TOBIZ_NM":"","CNTNTS_ADRES":"강원도 정선군 여량면 여량리 109-4","CNTNTS_ADRES2":"","CNTNTS_TELNO":"033-562-9956","CNTNTS_MENU":"소머리국밥, 순대국밥, 뼈다귀해장국,선지해장국,오리불고기","REPRSNT_PERSON_NM":"","CNTNTS_PRKPLCE_AT":"N","PAY_METHD":"","CNTNTS_URL":"","CNTNTS_TXT":"","LAT":"37.4718083","LNG":"128.7248543","CNTNTS_UPDE":"2013-12-11 11:52:13.0"},{"CNTNTS_AREA":"강원","CNTNTS_AREA2":"정선군","CNTNTS_SN":"3417","CNTNTS_TITLE":"청송횟집","TOBIZ_NM":"","CNTNTS_ADRES":"강원 정선군 신동읍 함백로 106","CNTNTS_ADRES2":"","CNTNTS_TELNO":"033-378-6474","CNTNTS_MENU":"향어회, 송어회, 장어구이","REPRSNT_PERSON_NM":"","CNTNTS_PRKPLCE_AT":"Y","PAY_METHD":"","CNTNTS_URL":"","CNTNTS_TXT":"","LAT":"37.2129507","LNG":"128.6534904","CNTNTS_UPDE":"2015-07-27 14:01:33.0"},{"CNTNTS_AREA":"강원","CNTNTS_AREA2":"정선군","CNTNTS_SN":"17563","CNTNTS_TITLE":"고려식당","TOBIZ_NM":"","CNTNTS_ADRES":"강원도 정선군 여량면 서동로 2907-1","CNTNTS_ADRES2":"","CNTNTS_TELNO":"033-562-5303","CNTNTS_MENU":"된장찌개, 감자탕,","REPRSNT_PERSON_NM":"","CNTNTS_PRKPLCE_AT":"N","PAY_METHD":"","CNTNTS_URL":"","CNTNTS_TXT":"","LAT":"37.4715922","LNG":"128.7227743","CNTNTS_UPDE":"2013-11-22 11:34:56.0"},{"CNTNTS_AREA":"강원","CNTNTS_AREA2":"정선군","CNTNTS_SN":"17564","CNTNTS_TITLE":"곤드레식당","TOBIZ_NM":"","CNTNTS_ADRES":"강원도 정선군 화암면 그림바위길 58-1","CNTNTS_ADRES2":"","CNTNTS_TELNO":"033-562-9620","CNTNTS_MENU":"곤드레,","REPRSNT_PERSON_NM":"","CNTNTS_PRKPLCE_AT":"N","PAY_METHD":"","CNTNTS_URL":"","CNTNTS_TXT":"","LAT":"37.3386882","LNG":"128.7881529","CNTNTS_UPDE":"2013-11-22 11:50:37.0"},{"CNTNTS_AREA":"강원","CNTNTS_AREA2":"정선군","CNTNTS_SN":"17565","CNTNTS_TITLE":"구절리집","TOBIZ_NM":"","CNTNTS_ADRES":"강원도 정선군 정선읍 5일장길 38-8","CNTNTS_ADRES2":"","CNTNTS_TELNO":"033-563-9792","CNTNTS_MENU":"감자전,","REPRSNT_PERSON_NM":"","CNTNTS_PRKPLCE_AT":"N","PAY_METHD":"","CNTNTS_URL":"","CNTNTS_TXT":"","LAT":"37.3801475","LNG":"128.6645408","CNTNTS_UPDE":"2013-11-22 11:53:04.0"},{"CNTNTS_AREA":"강원","CNTNTS_AREA2":"정선군","CNTNTS_SN":"17566","CNTNTS_TITLE":"국일관","TOBIZ_NM":"","CNTNTS_ADRES":"강원도 정선군 정선읍 봉양리 144-13","CNTNTS_ADRES2":"","CNTNTS_TELNO":"033-562-3076","CNTNTS_MENU":"오리","REPRSNT_PERSON_NM":"","CNTNTS_PRKPLCE_AT":"N","PAY_METHD":"","CNTNTS_URL":"","CNTNTS_TXT":"","LAT":"37.3786862","LNG":"128.6643326","CNTNTS_UPDE":"2013-11-22 11:57:14.0"},{"CNTNTS_AREA":"강원","CNTNTS_AREA2":"정선군","CNTNTS_SN":"17567","CNTNTS_TITLE":"낙원회관","TOBIZ_NM":"","CNTNTS_ADRES":"강원도 정선군 고한읍 고한6길 20","CNTNTS_ADRES2":"","CNTNTS_TELNO":"033-591-2510","CNTNTS_MENU":"한우,","REPRSNT_PERSON_NM":"","CNTNTS_PRKPLCE_AT":"N","PAY_METHD":"","CNTNTS_URL":"","CNTNTS_TXT":"","LAT":"37.2004592","LNG":"128.8543257","CNTNTS_UPDE":"2013-11-22 12:02:02.0"},{"CNTNTS_AREA":"강원","CNTNTS_AREA2":"정선군","CNTNTS_SN":"17609","CNTNTS_TITLE":"느티나무집","TOBIZ_NM":"","CNTNTS_ADRES":"강원도 정선군 정선읍 봉양7길 19-4","CNTNTS_ADRES2":"","CNTNTS_TELNO":"033-563-1600","CNTNTS_MENU":"동강다슬기해장국, 어탕, 백반정식,  가마솥황기백숙, 닭도리탕등등","REPRSNT_PERSON_NM":"","CNTNTS_PRKPLCE_AT":"N","PAY_METHD":"","CNTNTS_URL":"","CNTNTS_TXT":"","LAT":"37.3789505","LNG":"128.6644433","CNTNTS_UPDE":"2013-11-25 10:06:53.0"},{"CNTNTS_AREA":"강원","CNTNTS_AREA2":"정선군","CNTNTS_SN":"17610","CNTNTS_TITLE":"다락가든","TOBIZ_NM":"","CNTNTS_ADRES":"강원도 정선군 여량면 노추산로 842","CNTNTS_ADRES2":"","CNTNTS_TELNO":"033-562-3751","CNTNTS_MENU":"손두부전골, 더덕구이, 산채백반, 곤드레나물밥, 막국수, 콧등치기 등등","REPRSNT_PERSON_NM":"","CNTNTS_PRKPLCE_AT":"N","PAY_METHD":"","CNTNTS_URL":"","CNTNTS_TXT":"","LAT":"37.517878","LNG":"128.736646","CNTNTS_UPDE":"2013-11-25 10:17:35.0"},{"CNTNTS_AREA":"강원","CNTNTS_AREA2":"정선군","CNTNTS_SN":"17612","CNTNTS_TITLE":"단풍나무","TOBIZ_NM":"","CNTNTS_ADRES":"강원도 정선군 사북읍 사북중앙로 11","CNTNTS_ADRES2":"","CNTNTS_TELNO":"033-592-5509","CNTNTS_MENU":"한우샤브샤브, 스페셜 샤브샤브, 버섯샤브샤브, 해물샤브샤브, 모둠 샤브샤브 등등","REPRSNT_PERSON_NM":"","CNTNTS_PRKPLCE_AT":"N","PAY_METHD":"","CNTNTS_URL":"","CNTNTS_TXT":"","LAT":"37.2271102","LNG":"128.8158461","CNTNTS_UPDE":"2013-11-25 10:32:08.0"},{"CNTNTS_AREA":"강원","CNTNTS_AREA2":"정선군","CNTNTS_SN":"17614","CNTNTS_TITLE":"달동네식당","TOBIZ_NM":"","CNTNTS_ADRES":"강원도 정선군 여량면 유천리 산79","CNTNTS_ADRES2":"","CNTNTS_TELNO":"033-562-0560","CNTNTS_MENU":"만두국, 백반, 삼겹살 등등","REPRSNT_PERSON_NM":"","CNTNTS_PRKPLCE_AT":"N","PAY_METHD":"","CNTNTS_URL":"","CNTNTS_TXT":"","LAT":"37.4749087","LNG":"128.7400037","CNTNTS_UPDE":"2013-11-25 10:41:00.0"},{"CNTNTS_AREA":"강원","CNTNTS_AREA2":"정선군","CNTNTS_SN":"17615","CNTNTS_TITLE":"도봉산갈비","TOBIZ_NM":"","CNTNTS_ADRES":"강원도 정선군 정선읍 봉양7길 3","CNTNTS_ADRES2":"","CNTNTS_TELNO":"033-562-5929","CNTNTS_MENU":"등심, 왕통갈비, 이동갈비, 돼지왕갈비, 돼지갈비, 등등","REPRSNT_PERSON_NM":"","CNTNTS_PRKPLCE_AT":"N","PAY_METHD":"","CNTNTS_URL":"","CNTNTS_TXT":"","LAT":"37.3782462","LNG":"128.6629364","CNTNTS_UPDE":"2013-11-25 10:59:08.0"},{"CNTNTS_AREA":"강원","CNTNTS_AREA2":"정선군","CNTNTS_SN":"17616","CNTNTS_TITLE":"두메산골","TOBIZ_NM":"","CNTNTS_ADRES":"강원도 정선군 화암면 약수길 1330","CNTNTS_ADRES2":"","CNTNTS_TELNO":"033-563-6506","CNTNTS_MENU":"약수엄나무 토종백숙, 약수한방닭도리탕, 인삼매운닭강정, 옛날튀김닭, 곤드레나물밥 등등","REPRSNT_PERSON_NM":"","CNTNTS_PRKPLCE_AT":"N","PAY_METHD":"","CNTNTS_URL":"","CNTNTS_TXT":"","LAT":"37.3291555","LNG":"128.7857265","CNTNTS_UPDE":"2013-11-25 11:08:00.0"},{"CNTNTS_AREA":"강원","CNTNTS_AREA2":"정선군","CNTNTS_SN":"17617","CNTNTS_TITLE":"마카와요","TOBIZ_NM":"","CNTNTS_ADRES":"강원도 정선군 여량면 유천리 산79","CNTNTS_ADRES2":"","CNTNTS_TELNO":"033-562-4367","CNTNTS_MENU":"칼국수","REPRSNT_PERSON_NM":"","CNTNTS_PRKPLCE_AT":"N","PAY_METHD":"","CNTNTS_URL":"","CNTNTS_TXT":"","LAT":"37.4749087","LNG":"128.7400037","CNTNTS_UPDE":"2013-11-25 11:15:41.0"},{"CNTNTS_AREA":"강원","CNTNTS_AREA2":"정선군","CNTNTS_SN":"17619","CNTNTS_TITLE":"막창1번지","TOBIZ_NM":"","CNTNTS_ADRES":"강원도 정선군 고한읍 고한6길 9-7","CNTNTS_ADRES2":"","CNTNTS_TELNO":"033-591-5521","CNTNTS_MENU":"갈매기살, 바다장어, 막창, 삼겹살, 매운꼼장어","REPRSNT_PERSON_NM":"","CNTNTS_PRKPLCE_AT":"N","PAY_METHD":"","CNTNTS_URL":"","CNTNTS_TXT":"","LAT":"37.2012402","LNG":"128.854098","CNTNTS_UPDE":"2013-11-25 11:27:16.0"},{"CNTNTS_AREA":"강원","CNTNTS_AREA2":"정선군","CNTNTS_SN":"17621","CNTNTS_TITLE":"만항식당","TOBIZ_NM":"","CNTNTS_ADRES":"강원도 정선군 고한읍 고한리 214","CNTNTS_ADRES2":"","CNTNTS_TELNO":"033-591-5196","CNTNTS_MENU":"장뇌삼백숙,닭도리탕,옷닭.황기백숙.장뇌삼오리백숙.황기오리백숙.옷오리백숙","REPRSNT_PERSON_NM":"","CNTNTS_PRKPLCE_AT":"N","PAY_METHD":"","CNTNTS_URL":"","CNTNTS_TXT":"","LAT":"37.1599248","LNG":"128.9013935","CNTNTS_UPDE":"2013-11-25 11:33:01.0"},{"CNTNTS_AREA":"강원","CNTNTS_AREA2":"정선군","CNTNTS_SN":"17625","CNTNTS_TITLE":"미담","TOBIZ_NM":"","CNTNTS_ADRES":"강원도 정선군 정선읍 5일장길 38-5","CNTNTS_ADRES2":"","CNTNTS_TELNO":"033-563-2929","CNTNTS_MENU":"냉면,해물칼국수,곤드레나물밥,메밀부치기,해물파전","REPRSNT_PERSON_NM":"","CNTNTS_PRKPLCE_AT":"N","PAY_METHD":"","CNTNTS_URL":"","CNTNTS_TXT":"","LAT":"37.38026","LNG":"128.6647168","CNTNTS_UPDE":"2013-11-25 11:45:51.0"},{"CNTNTS_AREA":"강원","CNTNTS_AREA2":"정선군","CNTNTS_SN":"17626","CNTNTS_TITLE":"미희네분식","TOBIZ_NM":"","CNTNTS_ADRES":"강원도 정선군 고한읍 고한6길 15-3","CNTNTS_ADRES2":"","CNTNTS_TELNO":"033-591-0079","CNTNTS_MENU":"돈가스,잔치국수,양푼이비빔밥,얼큰수제비,닭발","REPRSNT_PERSON_NM":"","CNTNTS_PRKPLCE_AT":"N","PAY_METHD":"","CNTNTS_URL":"","CNTNTS_TXT":"","LAT":"37.2007332","LNG":"128.8543097","CNTNTS_UPDE":"2013-11-25 11:48:56.0"},{"CNTNTS_AREA":"강원","CNTNTS_AREA2":"정선군","CNTNTS_SN":"17628","CNTNTS_TITLE":"민둥산식당","TOBIZ_NM":"","CNTNTS_ADRES":"강원도 정선군 남면 무릉1로 83","CNTNTS_ADRES2":"","CNTNTS_TELNO":"033-591-5002","CNTNTS_MENU":"곤드레밥,곤드레고등어찜,갈치조림","REPRSNT_PERSON_NM":"","CNTNTS_PRKPLCE_AT":"N","PAY_METHD":"","CNTNTS_URL":"","CNTNTS_TXT":"","LAT":"37.2464708","LNG":"128.7775937","CNTNTS_UPDE":"2013-11-25 11:57:32.0"},{"CNTNTS_AREA":"강원","CNTNTS_AREA2":"정선군","CNTNTS_SN":"17629","CNTNTS_TITLE":"바우골","TOBIZ_NM":"","CNTNTS_ADRES":"강원도 정선군 정선읍 봉양6길 29-2","CNTNTS_ADRES2":"","CNTNTS_TELNO":"033-563-3666","CNTNTS_MENU":"한우등심++,한우등심+,국내산삼겹살,돌솥설렁탕,산채돌솥비빔밥","REPRSNT_PERSON_NM":"","CNTNTS_PRKPLCE_AT":"N","PAY_METHD":"","CNTNTS_URL":"","CNTNTS_TXT":"","LAT":"37.3801124","LNG":"128.6629179","CNTNTS_UPDE":"2013-11-25 12:07:15.0"},{"CNTNTS_AREA":"강원","CNTNTS_AREA2":"정선군","CNTNTS_SN":"17630","CNTNTS_TITLE":"바이크식당","TOBIZ_NM":"","CNTNTS_ADRES":"강원도 정선군 여량면 노추산로 748","CNTNTS_ADRES2":"","CNTNTS_TELNO":"033-563-9794","CNTNTS_MENU":"민물매운탕,오삼불고기,곤드레밥,더덕구이,동치미막국수","REPRSNT_PERSON_NM":"","CNTNTS_PRKPLCE_AT":"N","PAY_METHD":"","CNTNTS_URL":"","CNTNTS_TXT":"","LAT":"37.5160918","LNG":"128.7272519","CNTNTS_UPDE":"2013-11-25 12:09:26.0"},{"CNTNTS_AREA":"강원","CNTNTS_AREA2":"정선군","CNTNTS_SN":"17637","CNTNTS_TITLE":"밥상머리","TOBIZ_NM":"","CNTNTS_ADRES":"강원도 정선군 고한읍 함백산로 1103","CNTNTS_ADRES2":"","CNTNTS_TELNO":"033-591-2030","CNTNTS_MENU":"닭백숙, 닭도리탕, 상황오리백숙, 오리주물럭 등등","REPRSNT_PERSON_NM":"","CNTNTS_PRKPLCE_AT":"N","PAY_METHD":"","CNTNTS_URL":"","CNTNTS_TXT":"","LAT":"37.159125","LNG":"128.9004","CNTNTS_UPDE":"2013-11-26 09:46:26.0"},{"CNTNTS_AREA":"강원","CNTNTS_AREA2":"정선군","CNTNTS_SN":"17640","CNTNTS_TITLE":"복두꺼비식당","TOBIZ_NM":"","CNTNTS_ADRES":"강원도 정선군 여량면 서동로 2927-1","CNTNTS_ADRES2":"","CNTNTS_TELNO":"033-562-3040","CNTNTS_MENU":"오리주물럭, 닭갈비, 닭도리탕, 갈치조림, 육개장","REPRSNT_PERSON_NM":"","CNTNTS_PRKPLCE_AT":"N","PAY_METHD":"","CNTNTS_URL":"","CNTNTS_TXT":"","LAT":"37.4720837","LNG":"128.7249067","CNTNTS_UPDE":"2013-11-26 10:05:34.0"},{"CNTNTS_AREA":"강원","CNTNTS_AREA2":"정선군","CNTNTS_SN":"17642","CNTNTS_TITLE":"복미식당","TOBIZ_NM":"","CNTNTS_ADRES":"강원도 정선군 화암면 그림바위길 47","CNTNTS_ADRES2":"","CNTNTS_TELNO":"033-562-2073","CNTNTS_MENU":"막국수, 콩물국수,비빔막국수,닭도리탕,제육","REPRSNT_PERSON_NM":"","CNTNTS_PRKPLCE_AT":"N","PAY_METHD":"","CNTNTS_URL":"","CNTNTS_TXT":"","LAT":"37.3396711","LNG":"128.7883166","CNTNTS_UPDE":"2013-11-26 10:13:48.0"},{"CNTNTS_AREA":"강원","CNTNTS_AREA2":"정선군","CNTNTS_SN":"17643","CNTNTS_TITLE":"봉우네집","TOBIZ_NM":"","CNTNTS_ADRES":"강원도 정선군 정선읍 5일장길 27-10","CNTNTS_ADRES2":"","CNTNTS_TELNO":"033-563-8823","CNTNTS_MENU":"민물매운탕,생선조림,각종찌게,만두국,메밀국죽","REPRSNT_PERSON_NM":"","CNTNTS_PRKPLCE_AT":"N","PAY_METHD":"","CNTNTS_URL":"","CNTNTS_TXT":"","LAT":"37.3807702","LNG":"128.6642075","CNTNTS_UPDE":"2013-11-26 10:21:56.0"},{"CNTNTS_AREA":"강원","CNTNTS_AREA2":"정선군","CNTNTS_SN":"17644","CNTNTS_TITLE":"부흥식당","TOBIZ_NM":"","CNTNTS_ADRES":"강원도 정선군 여량면 여량6길 8","CNTNTS_ADRES2":"","CNTNTS_TELNO":"033-562-4010","CNTNTS_MENU":"청국장,삼계탕,감자옹심이,산채비빔밥,민물매운탕","REPRSNT_PERSON_NM":"","CNTNTS_PRKPLCE_AT":"N","PAY_METHD":"","CNTNTS_URL":"","CNTNTS_TXT":"","LAT":"37.4721723","LNG":"128.7226612","CNTNTS_UPDE":"2013-11-26 10:29:58.0"},{"CNTNTS_AREA":"강원","CNTNTS_AREA2":"정선군","CNTNTS_SN":"17646","CNTNTS_TITLE":"삐삐네","TOBIZ_NM":"","CNTNTS_ADRES":"강원도 정선군 고한읍 고한6길 9-7","CNTNTS_ADRES2":"","CNTNTS_TELNO":"033-591-2348","CNTNTS_MENU":"영양탕,백숙,도루묵조림,동태찌개,뼈없는닭발","REPRSNT_PERSON_NM":"","CNTNTS_PRKPLCE_AT":"N","PAY_METHD":"","CNTNTS_URL":"","CNTNTS_TXT":"","LAT":"37.2012402","LNG":"128.854098","CNTNTS_UPDE":"2013-11-26 10:38:03.0"},{"CNTNTS_AREA":"강원","CNTNTS_AREA2":"정선군","CNTNTS_SN":"17648","CNTNTS_TITLE":"사계절막국수","TOBIZ_NM":"","CNTNTS_ADRES":"강원도 정선군 여량면 아우라지길 18","CNTNTS_ADRES2":"","CNTNTS_TELNO":"033-563-5999","CNTNTS_MENU":"막국수(물,비빔), 수육, 장칼국수, 떡만두국, 닭볶음탕","REPRSNT_PERSON_NM":"","CNTNTS_PRKPLCE_AT":"N","PAY_METHD":"","CNTNTS_URL":"","CNTNTS_TXT":"","LAT":"37.4722697","LNG":"128.7245558","CNTNTS_UPDE":"2013-11-26 10:47:00.0"},{"CNTNTS_AREA":"강원","CNTNTS_AREA2":"정선군","CNTNTS_SN":"17650","CNTNTS_TITLE":"산골집","TOBIZ_NM":"","CNTNTS_ADRES":"강원도 정선군 정선읍 5일장길 38-5","CNTNTS_ADRES2":"","CNTNTS_TELNO":"033-563-0462","CNTNTS_MENU":"약초순대국밥,약초소머리국밥,장터우거지국밥","REPRSNT_PERSON_NM":"","CNTNTS_PRKPLCE_AT":"N","PAY_METHD":"","CNTNTS_URL":"","CNTNTS_TXT":"","LAT":"37.38026","LNG":"128.6647168","CNTNTS_UPDE":"2013-11-26 10:49:45.0"},{"CNTNTS_AREA":"강원","CNTNTS_AREA2":"정선군","CNTNTS_SN":"17653","CNTNTS_TITLE":"산내들식당","TOBIZ_NM":"","CNTNTS_ADRES":"강원도 정선군 정선읍 5일장길 38-5","CNTNTS_ADRES2":"","CNTNTS_TELNO":"033-562-0265","CNTNTS_MENU":"오리주물럭, 닭갈비, 묵은지갈비찜, 등등","REPRSNT_PERSON_NM":"","CNTNTS_PRKPLCE_AT":"N","PAY_METHD":"","CNTNTS_URL":"","CNTNTS_TXT":"","LAT":"37.38026","LNG":"128.6647168","CNTNTS_UPDE":"2013-11-26 11:06:13.0"},{"CNTNTS_AREA":"강원","CNTNTS_AREA2":"정선군","CNTNTS_SN":"17656","CNTNTS_TITLE":"산마루","TOBIZ_NM":"","CNTNTS_ADRES":"강원도 정선군 사북읍 사북리 64-1","CNTNTS_ADRES2":"","CNTNTS_TELNO":"033-592-5562","CNTNTS_MENU":"토종닭 각종요리, 전통 손두부.","REPRSNT_PERSON_NM":"","CNTNTS_PRKPLCE_AT":"N","PAY_METHD":"","CNTNTS_URL":"","CNTNTS_TXT":"","LAT":"37.2369692","LNG":"128.861139","CNTNTS_UPDE":"2013-11-26 11:18:55.0"},{"CNTNTS_AREA":"강원","CNTNTS_AREA2":"정선군","CNTNTS_SN":"17658","CNTNTS_TITLE":"산막골식당","TOBIZ_NM":"","CNTNTS_ADRES":"강원도 정선군 정선읍 가리왕산로 691","CNTNTS_ADRES2":"","CNTNTS_TELNO":"033-563-0999","CNTNTS_MENU":"황기백숙, 산채정식, 된장찌개등등","REPRSNT_PERSON_NM":"","CNTNTS_PRKPLCE_AT":"N","PAY_METHD":"","CNTNTS_URL":"","CNTNTS_TXT":"","LAT":"37.421231","LNG":"128.576379","CNTNTS_UPDE":"2013-11-26 11:22:56.0"},{"CNTNTS_AREA":"강원","CNTNTS_AREA2":"정선군","CNTNTS_SN":"17662","CNTNTS_TITLE":"산수정","TOBIZ_NM":"","CNTNTS_ADRES":"강원도 정선군 고한읍 고한6길 8","CNTNTS_ADRES2":"","CNTNTS_TELNO":"033-592-9090","CNTNTS_MENU":"아구찜,황태전골,동태찌개,갈치구이조림,황태구이","REPRSNT_PERSON_NM":"","CNTNTS_PRKPLCE_AT":"N","PAY_METHD":"","CNTNTS_URL":"","CNTNTS_TXT":"","LAT":"37.2006669","LNG":"128.8538808","CNTNTS_UPDE":"2013-11-26 11:47:01.0"},{"CNTNTS_AREA":"강원","CNTNTS_AREA2":"정선군","CNTNTS_SN":"17667","CNTNTS_TITLE":"삼거리가든","TOBIZ_NM":"","CNTNTS_ADRES":"강원도 정선군 임계면 봉정로 920","CNTNTS_ADRES2":"","CNTNTS_TELNO":"033-563-7008","CNTNTS_MENU":"흑염소전골,민물매운탕,황기백숙,닭볶음탕,백반","REPRSNT_PERSON_NM":"","CNTNTS_PRKPLCE_AT":"Y","PAY_METHD":"","CNTNTS_URL":"","CNTNTS_TXT":"","LAT":"37.456807","LNG":"128.7918831","CNTNTS_UPDE":"2013-11-26 13:24:51.0"},{"CNTNTS_AREA":"강원","CNTNTS_AREA2":"정선군","CNTNTS_SN":"17669","CNTNTS_TITLE":"삼거리쉼터식당","TOBIZ_NM":"","CNTNTS_ADRES":"강원도 정선군 여량면 노추산로 846","CNTNTS_ADRES2":"","CNTNTS_TELNO":"033-562-5190","CNTNTS_MENU":"황기백숙, 닭도리탕, 곤드레밥, 민물고기 매운탕, 가정식백반, 콧등치기","REPRSNT_PERSON_NM":"","CNTNTS_PRKPLCE_AT":"N","PAY_METHD":"","CNTNTS_URL":"","CNTNTS_TXT":"","LAT":"37.5182784","LNG":"128.7367495","CNTNTS_UPDE":"2013-11-26 13:29:02.0"},{"CNTNTS_AREA":"강원","CNTNTS_AREA2":"정선군","CNTNTS_SN":"17671","CNTNTS_TITLE":"상하이샤브샤브","TOBIZ_NM":"","CNTNTS_ADRES":"강원도 정선군 정선읍 녹송로 71-1","CNTNTS_ADRES2":"","CNTNTS_TELNO":"033-563-8185","CNTNTS_MENU":"양고기,소고기샤브, 손순두부백반, 두부전골, 소머리곰탕,꼼장어볶음","REPRSNT_PERSON_NM":"","CNTNTS_PRKPLCE_AT":"Y","PAY_METHD":"","CNTNTS_URL":"","CNTNTS_TXT":"","LAT":"37.3834018","LNG":"128.6706775","CNTNTS_UPDE":"2013-11-26 13:34:50.0"},{"CNTNTS_AREA":"강원","CNTNTS_AREA2":"정선군","CNTNTS_SN":"17672","CNTNTS_TITLE":"서울식당","TOBIZ_NM":"","CNTNTS_ADRES":"강원도 정선군 정선읍 비봉로 17","CNTNTS_ADRES2":"","CNTNTS_TELNO":"033-562-5430","CNTNTS_MENU":"황기백숙, 생삼겹살,쭈삼불고기,육개장,동태탕","REPRSNT_PERSON_NM":"","CNTNTS_PRKPLCE_AT":"N","PAY_METHD":"","CNTNTS_URL":"","CNTNTS_TXT":"","LAT":"37.3809588","LNG":"128.6602864","CNTNTS_UPDE":"2013-11-26 13:43:31.0"},{"CNTNTS_AREA":"강원","CNTNTS_AREA2":"정선군","CNTNTS_SN":"17676","CNTNTS_TITLE":"석곡집","TOBIZ_NM":"","CNTNTS_ADRES":"강원도 정선군 정선읍 5일장길 42-3","CNTNTS_ADRES2":"","CNTNTS_TELNO":"033-562-8322","CNTNTS_MENU":"민물고기매운탕, 곤드레밥,내장탕,콧등치기,소머리국밥","REPRSNT_PERSON_NM":"","CNTNTS_PRKPLCE_AT":"N","PAY_METHD":"","CNTNTS_URL":"","CNTNTS_TXT":"","LAT":"37.3804051","LNG":"128.6648796","CNTNTS_UPDE":"2013-11-26 13:53:13.0"},{"CNTNTS_AREA":"강원","CNTNTS_AREA2":"정선군","CNTNTS_SN":"17678","CNTNTS_TITLE":"석촌식당","TOBIZ_NM":"","CNTNTS_ADRES":"강원도 정선군 정선읍 5일장길 27-10","CNTNTS_ADRES2":"","CNTNTS_TELNO":"033-563-3359","CNTNTS_MENU":"더덕구이, 묵은지김치찜, 묵밥, 삼계탕, 수수부꾸미, 닭도리탕 등등","REPRSNT_PERSON_NM":"","CNTNTS_PRKPLCE_AT":"N","PAY_METHD":"","CNTNTS_URL":"","CNTNTS_TXT":"","LAT":"37.3807702","LNG":"128.6642075","CNTNTS_UPDE":"2013-11-26 13:57:43.0"},{"CNTNTS_AREA":"강원","CNTNTS_AREA2":"정선군","CNTNTS_SN":"17680","CNTNTS_TITLE":"송화식당","TOBIZ_NM":"","CNTNTS_ADRES":"강원도 정선군 화암면 화암동굴길 12-22","CNTNTS_ADRES2":"","CNTNTS_TELNO":"033-562-1761","CNTNTS_MENU":"곤드레나물밥, 산채비빔밥, 버섯전골, 민물매운탕, 콧등치기","REPRSNT_PERSON_NM":"","CNTNTS_PRKPLCE_AT":"N","PAY_METHD":"","CNTNTS_URL":"","CNTNTS_TXT":"","LAT":"37.351454","LNG":"128.7906939","CNTNTS_UPDE":"2013-11-26 14:10:24.0"},{"CNTNTS_AREA":"강원","CNTNTS_AREA2":"정선군","CNTNTS_SN":"17682","CNTNTS_TITLE":"수원갈비","TOBIZ_NM":"","CNTNTS_ADRES":"강원도 정선군 고한읍 고한리 산261-19","CNTNTS_ADRES2":"","CNTNTS_TELNO":"033-592-3022","CNTNTS_MENU":"한우등심,한우갈비살,돼지갈비,갈비탕,냉면","REPRSNT_PERSON_NM":"","CNTNTS_PRKPLCE_AT":"N","PAY_METHD":"","CNTNTS_URL":"","CNTNTS_TXT":"","LAT":"37.205106","LNG":"128.855214","CNTNTS_UPDE":"2013-11-26 14:21:06.0"},{"CNTNTS_AREA":"강원","CNTNTS_AREA2":"정선군","CNTNTS_SN":"17683","CNTNTS_TITLE":"시골밥상","TOBIZ_NM":"","CNTNTS_ADRES":"강원도 정선군 정선읍 5일장길 59","CNTNTS_ADRES2":"","CNTNTS_TELNO":"033-563-6114","CNTNTS_MENU":"곤드레나물밥,산채비빔밥,찌개백반,황기백숙,옻닭","REPRSNT_PERSON_NM":"","CNTNTS_PRKPLCE_AT":"N","PAY_METHD":"","CNTNTS_URL":"","CNTNTS_TXT":"","LAT":"37.3808306","LNG":"128.6658081","CNTNTS_UPDE":"2013-11-26 14:23:30.0"},{"CNTNTS_AREA":"강원","CNTNTS_AREA2":"정선군","CNTNTS_SN":"17687","CNTNTS_TITLE":"신토불이식당","TOBIZ_NM":"","CNTNTS_ADRES":"강원도 정선군 여량면 구절리 산245-4","CNTNTS_ADRES2":"","CNTNTS_TELNO":"033-563-7986","CNTNTS_MENU":"왕갈비탕, 다슬기 해장국, 영양탕, 백숙, 닭볶음탕","REPRSNT_PERSON_NM":"","CNTNTS_PRKPLCE_AT":"N","PAY_METHD":"","CNTNTS_URL":"","CNTNTS_TXT":"","LAT":"37.5138522","LNG":"128.725565","CNTNTS_UPDE":"2013-11-26 14:38:57.0"},{"CNTNTS_AREA":"강원","CNTNTS_AREA2":"정선군","CNTNTS_SN":"17688","CNTNTS_TITLE":"아리랑식당","TOBIZ_NM":"","CNTNTS_ADRES":"강원도 정선군 화암면 화암동굴길 12-19","CNTNTS_ADRES2":"","CNTNTS_TELNO":"033-562-6560","CNTNTS_MENU":"민물매운탕, 황기백숙, 닭도리탕, 콧등치기, 양푼산채비빔밥","REPRSNT_PERSON_NM":"","CNTNTS_PRKPLCE_AT":"N","PAY_METHD":"","CNTNTS_URL":"","CNTNTS_TXT":"","LAT":"37.3514643","LNG":"128.7898249","CNTNTS_UPDE":"2013-11-26 14:41:58.0"},{"CNTNTS_AREA":"강원","CNTNTS_AREA2":"정선군","CNTNTS_SN":"17690","CNTNTS_TITLE":"양지골","TOBIZ_NM":"","CNTNTS_ADRES":"강원도 정선군 정선읍 봉양리 15-1","CNTNTS_ADRES2":"","CNTNTS_TELNO":"033-562-3200","CNTNTS_MENU":"생막창, 불막창, 소갈비살, 삼겹살","REPRSNT_PERSON_NM":"","CNTNTS_PRKPLCE_AT":"N","PAY_METHD":"","CNTNTS_URL":"","CNTNTS_TXT":"","LAT":"37.3885454","LNG":"128.6661711","CNTNTS_UPDE":"2013-11-26 14:46:13.0"},{"CNTNTS_AREA":"강원","CNTNTS_AREA2":"정선군","CNTNTS_SN":"17691","CNTNTS_TITLE":"여송정가든","TOBIZ_NM":"","CNTNTS_ADRES":"강원도 정선군 여량면 서동로 2913","CNTNTS_ADRES2":"","CNTNTS_TELNO":"033-562-4176","CNTNTS_MENU":"민물매운탕, 등심, 삼겹살, 닭갈비, 곤드레밥","REPRSNT_PERSON_NM":"","CNTNTS_PRKPLCE_AT":"N","PAY_METHD":"","CNTNTS_URL":"","CNTNTS_TXT":"","LAT":"37.4718076","LNG":"128.7233643","CNTNTS_UPDE":"2013-11-26 14:48:10.0"},{"CNTNTS_AREA":"강원","CNTNTS_AREA2":"정선군","CNTNTS_SN":"17693","CNTNTS_TITLE":"오랍드리","TOBIZ_NM":"","CNTNTS_ADRES":"강원도 정선군 정선읍 5일장길 23-10","CNTNTS_ADRES2":"","CNTNTS_TELNO":"033-562-2997","CNTNTS_MENU":"콩국수, 모듬비빔국수, 보리밥뷔페, 굴모듬회, 쟁반낙지볶음,우동닭도리탕,김치등갈비찜","REPRSNT_PERSON_NM":"","CNTNTS_PRKPLCE_AT":"N","PAY_METHD":"","CNTNTS_URL":"","CNTNTS_TXT":"","LAT":"37.3809405","LNG":"128.663728","CNTNTS_UPDE":"2013-11-26 15:07:12.0"},{"CNTNTS_AREA":"강원","CNTNTS_AREA2":"정선군","CNTNTS_SN":"17694","CNTNTS_TITLE":"오리랑돼지랑","TOBIZ_NM":"","CNTNTS_ADRES":"강원도 정선군 정선읍 5일장길 27-10","CNTNTS_ADRES2":"","CNTNTS_TELNO":"033-562-9992","CNTNTS_MENU":"곤드레밥,산채비빔밥,이면수조림,닭도리탕,오리주물럭","REPRSNT_PERSON_NM":"","CNTNTS_PRKPLCE_AT":"N","PAY_METHD":"","CNTNTS_URL":"","CNTNTS_TXT":"","LAT":"37.3807702","LNG":"128.6642075","CNTNTS_UPDE":"2013-11-26 15:08:53.0"},{"CNTNTS_AREA":"강원","CNTNTS_AREA2":"정선군","CNTNTS_SN":"17695","CNTNTS_TITLE":"올동박","TOBIZ_NM":"","CNTNTS_ADRES":"강원도 정선군 정선읍 5일장길 38-6","CNTNTS_ADRES2":"","CNTNTS_TELNO":"033-563-9911","CNTNTS_MENU":"곤드레밥전문,메밀부치기,메밀전병,장떡","REPRSNT_PERSON_NM":"","CNTNTS_PRKPLCE_AT":"N","PAY_METHD":"","CNTNTS_URL":"","CNTNTS_TXT":"","LAT":"37.3803026","LNG":"128.6645139","CNTNTS_UPDE":"2013-11-26 15:11:34.0"},{"CNTNTS_AREA":"강원","CNTNTS_AREA2":"정선군","CNTNTS_SN":"17696","CNTNTS_TITLE":"울산아지매","TOBIZ_NM":"","CNTNTS_ADRES":"강원도 정선군 고한읍 고한6길 22","CNTNTS_ADRES2":"","CNTNTS_TELNO":"033-591-4473","CNTNTS_MENU":"닭볶음탕, 소라문어, 도루묵찜, 꽃게탕, 소라무침","REPRSNT_PERSON_NM":"","CNTNTS_PRKPLCE_AT":"N","PAY_METHD":"","CNTNTS_URL":"","CNTNTS_TXT":"","LAT":"37.2004015","LNG":"128.8544501","CNTNTS_UPDE":"2013-11-26 15:13:39.0"},{"CNTNTS_AREA":"강원","CNTNTS_AREA2":"정선군","CNTNTS_SN":"17705","CNTNTS_TITLE":"웰빙농가","TOBIZ_NM":"","CNTNTS_ADRES":"강원도 정선군 정선읍 봉양7길 31","CNTNTS_ADRES2":"","CNTNTS_TELNO":"033-563-9909","CNTNTS_MENU":"곤드레정식,곤드레밥,닭갈비,산채비빔밥,불뚝배기","REPRSNT_PERSON_NM":"","CNTNTS_PRKPLCE_AT":"N","PAY_METHD":"","CNTNTS_URL":"","CNTNTS_TXT":"","LAT":"37.3794858","LNG":"128.6650747","CNTNTS_UPDE":"2013-11-26 16:11:08.0"},{"CNTNTS_AREA":"강원","CNTNTS_AREA2":"정선군","CNTNTS_SN":"17708","CNTNTS_TITLE":"이대감영양가","TOBIZ_NM":"","CNTNTS_ADRES":"강원도 정선군 정선읍 녹송1길 25","CNTNTS_ADRES2":"","CNTNTS_TELNO":"033-562-3450","CNTNTS_MENU":"한방누룽지백숙, 영양탕, 염소전골,","REPRSNT_PERSON_NM":"","CNTNTS_PRKPLCE_AT":"N","PAY_METHD":"","CNTNTS_URL":"","CNTNTS_TXT":"","LAT":"37.3827386","LNG":"128.6716302","CNTNTS_UPDE":"2013-11-26 16:22:05.0"},{"CNTNTS_AREA":"강원","CNTNTS_AREA2":"정선군","CNTNTS_SN":"17711","CNTNTS_TITLE":"정선풍경","TOBIZ_NM":"","CNTNTS_ADRES":"강원도 정선군 정선읍 봉양2길 17-2","CNTNTS_ADRES2":"","CNTNTS_TELNO":"033-563-0514","CNTNTS_MENU":"곤드레나물밥, 콧등치기, 추어탕, 칼국수, 오삼콩불, 삼겹살, 오리, 파불고기, 묵은지등뼈찜, 두부찌개, 고추장찌개","REPRSNT_PERSON_NM":"","CNTNTS_PRKPLCE_AT":"N","PAY_METHD":"","CNTNTS_URL":"","CNTNTS_TXT":"","LAT":"37.3788901","LNG":"128.6600921","CNTNTS_UPDE":"2013-11-26 16:29:31.0"},{"CNTNTS_AREA":"강원","CNTNTS_AREA2":"정선군","CNTNTS_SN":"17713","CNTNTS_TITLE":"정선회관","TOBIZ_NM":"","CNTNTS_ADRES":"강원도 정선군 정선읍 봉양6길 25-1","CNTNTS_ADRES2":"","CNTNTS_TELNO":"033-563-0073","CNTNTS_MENU":"곤드레나물밥, 산채비빔밥, 곤드레정식","REPRSNT_PERSON_NM":"","CNTNTS_PRKPLCE_AT":"N","PAY_METHD":"","CNTNTS_URL":"","CNTNTS_TXT":"","LAT":"37.379956","LNG":"128.6633422","CNTNTS_UPDE":"2013-11-26 16:41:47.0"},{"CNTNTS_AREA":"강원","CNTNTS_AREA2":"정선군","CNTNTS_SN":"17714","CNTNTS_TITLE":"종갓집","TOBIZ_NM":"","CNTNTS_ADRES":"강원도 정선군 정선읍 정선로 1332","CNTNTS_ADRES2":"","CNTNTS_TELNO":"033-562-1531","CNTNTS_MENU":"막국수전문,칼국수,제육보쌈","REPRSNT_PERSON_NM":"","CNTNTS_PRKPLCE_AT":"N","PAY_METHD":"","CNTNTS_URL":"","CNTNTS_TXT":"","LAT":"37.379295","LNG":"128.6618109","CNTNTS_UPDE":"2013-11-26 16:45:22.0"},{"CNTNTS_AREA":"강원","CNTNTS_AREA2":"정선군","CNTNTS_SN":"17716","CNTNTS_TITLE":"청원식당","TOBIZ_NM":"","CNTNTS_ADRES":"강원도 정선군 여량면 여량6길 7-1","CNTNTS_ADRES2":"","CNTNTS_TELNO":"033-562-4262","CNTNTS_MENU":"콧등치기","REPRSNT_PERSON_NM":"","CNTNTS_PRKPLCE_AT":"N","PAY_METHD":"","CNTNTS_URL":"","CNTNTS_TXT":"","LAT":"37.47208","LNG":"128.7221323","CNTNTS_UPDE":"2013-11-26 16:50:16.0"},{"CNTNTS_AREA":"강원","CNTNTS_AREA2":"정선군","CNTNTS_SN":"17718","CNTNTS_TITLE":"초가먹거리 우정집","TOBIZ_NM":"","CNTNTS_ADRES":"강원도 정선군 정선읍  5일장길 38-8","CNTNTS_ADRES2":"","CNTNTS_TELNO":"010-4005-9424","CNTNTS_MENU":"곤드레밥, 콧등치기, 전병, 부침모듬, 메밀국죽, 손칼국수","REPRSNT_PERSON_NM":"","CNTNTS_PRKPLCE_AT":"N","PAY_METHD":"","CNTNTS_URL":"","CNTNTS_TXT":"","LAT":"37.3801475","LNG":"128.6645408","CNTNTS_UPDE":"2013-11-26 16:55:38.0"},{"CNTNTS_AREA":"강원","CNTNTS_AREA2":"정선군","CNTNTS_SN":"17719","CNTNTS_TITLE":"춘천닭갈비","TOBIZ_NM":"","CNTNTS_ADRES":"강원도 정선군 정선읍 봉양2길 35","CNTNTS_ADRES2":"","CNTNTS_TELNO":"033-562-9945","CNTNTS_MENU":"닭갈비,삼겹살,오삼불고기,보리밥","REPRSNT_PERSON_NM":"","CNTNTS_PRKPLCE_AT":"N","PAY_METHD":"","CNTNTS_URL":"","CNTNTS_TXT":"","LAT":"37.3804421","LNG":"128.6593921","CNTNTS_UPDE":"2013-11-26 16:59:57.0"},{"CNTNTS_AREA":"강원","CNTNTS_AREA2":"정선군","CNTNTS_SN":"17720","CNTNTS_TITLE":"카지노식당","TOBIZ_NM":"","CNTNTS_ADRES":"강원도 정선군 고한읍 고한6길 29","CNTNTS_ADRES2":"","CNTNTS_TELNO":"033-591-2388","CNTNTS_MENU":"김치찌개,된장찌개,닭도리탕,삼겹살,오삼불고기","REPRSNT_PERSON_NM":"","CNTNTS_PRKPLCE_AT":"N","PAY_METHD":"","CNTNTS_URL":"","CNTNTS_TXT":"","LAT":"37.2003134","LNG":"128.8549121","CNTNTS_UPDE":"2013-11-26 17:01:53.0"},{"CNTNTS_AREA":"강원","CNTNTS_AREA2":"정선군","CNTNTS_SN":"17560","CNTNTS_TITLE":"가마골","TOBIZ_NM":"","CNTNTS_ADRES":"한국 강원도 정선군 정선읍 비봉로 14","CNTNTS_ADRES2":"","CNTNTS_TELNO":"033-562-7798","CNTNTS_MENU":"순대국,","REPRSNT_PERSON_NM":"","CNTNTS_PRKPLCE_AT":"N","PAY_METHD":"","CNTNTS_URL":"","CNTNTS_TXT":"","LAT":"37.3806576","LNG":"128.6598547","CNTNTS_UPDE":"2013-11-22 11:05:29.0"},{"CNTNTS_AREA":"강원","CNTNTS_AREA2":"정선군","CNTNTS_SN":"17723","CNTNTS_TITLE":"태백식당","TOBIZ_NM":"","CNTNTS_ADRES":"강원도 정선군 고한읍 고한6길 30","CNTNTS_ADRES2":"","CNTNTS_TELNO":"033-591-3626","CNTNTS_MENU":"동태찌개, 청국장, 오삼불고기, 김치찌개, 된장찌개","REPRSNT_PERSON_NM":"","CNTNTS_PRKPLCE_AT":"N","PAY_METHD":"","CNTNTS_URL":"","CNTNTS_TXT":"","LAT":"37.2001958","LNG":"128.854726","CNTNTS_UPDE":"2013-11-26 17:07:23.0"},{"CNTNTS_AREA":"강원","CNTNTS_AREA2":"정선군","CNTNTS_SN":"17724","CNTNTS_TITLE":"토종버섯마을","TOBIZ_NM":"","CNTNTS_ADRES":"강원도 정선군 정선읍 봉양5길 40-1","CNTNTS_ADRES2":"","CNTNTS_TELNO":"033-563-2685","CNTNTS_MENU":"버섯 전골,황기 삼계탕 ,웰빙 메밀 검은 콩국수","REPRSNT_PERSON_NM":"","CNTNTS_PRKPLCE_AT":"N","PAY_METHD":"","CNTNTS_URL":"","CNTNTS_TXT":"","LAT":"37.3808766","LNG":"128.6625847","CNTNTS_UPDE":"2013-11-26 17:10:30.0"},{"CNTNTS_AREA":"강원","CNTNTS_AREA2":"정선군","CNTNTS_SN":"17726","CNTNTS_TITLE":"팔도식당","TOBIZ_NM":"","CNTNTS_ADRES":"강원도 정선군 정선읍 녹송5길 3","CNTNTS_ADRES2":"","CNTNTS_TELNO":"033-563-0124","CNTNTS_MENU":"황기닭백숙,메기매운탕,산채비빔밥,곤드레밥,콧등치기","REPRSNT_PERSON_NM":"","CNTNTS_PRKPLCE_AT":"N","PAY_METHD":"","CNTNTS_URL":"","CNTNTS_TXT":"","LAT":"37.3850374","LNG":"128.6692127","CNTNTS_UPDE":"2013-11-26 17:28:32.0"},{"CNTNTS_AREA":"강원","CNTNTS_AREA2":"정선군","CNTNTS_SN":"17730","CNTNTS_TITLE":"평북식당","TOBIZ_NM":"","CNTNTS_ADRES":"강원도 정선군 화암면 화암리 530-1","CNTNTS_ADRES2":"","CNTNTS_TELNO":"033-562-2218","CNTNTS_MENU":"곤드레나물밥, 산채비빔밥, 두부전골,매운탕,닭백숙","REPRSNT_PERSON_NM":"","CNTNTS_PRKPLCE_AT":"N","PAY_METHD":"","CNTNTS_URL":"","CNTNTS_TXT":"","LAT":"37.3516499","LNG":"128.7899668","CNTNTS_UPDE":"2013-11-26 17:33:43.0"},{"CNTNTS_AREA":"강원","CNTNTS_AREA2":"정선군","CNTNTS_SN":"17735","CNTNTS_TITLE":"한우가든","TOBIZ_NM":"","CNTNTS_ADRES":"강원도 정선군 여량면 서동로 2926-1","CNTNTS_ADRES2":"","CNTNTS_TELNO":"033-562-4059","CNTNTS_MENU":"한우,돼지갈비,곤드레나물밥,한식일절","REPRSNT_PERSON_NM":"","CNTNTS_PRKPLCE_AT":"N","PAY_METHD":"","CNTNTS_URL":"","CNTNTS_TXT":"","LAT":"37.4717962","LNG":"128.7247819","CNTNTS_UPDE":"2013-11-26 17:47:23.0"},{"CNTNTS_AREA":"강원","CNTNTS_AREA2":"정선군","CNTNTS_SN":"17736","CNTNTS_TITLE":"함흥관","TOBIZ_NM":"","CNTNTS_ADRES":"강원도 정선군 정선읍 봉양7길 33","CNTNTS_ADRES2":"","CNTNTS_TELNO":"033-563-7272","CNTNTS_MENU":"곤드레밥,불고기뚝배기,돌솥비빔밥,삼겹살,갈비, 냉면,","REPRSNT_PERSON_NM":"","CNTNTS_PRKPLCE_AT":"N","PAY_METHD":"","CNTNTS_URL":"","CNTNTS_TXT":"","LAT":"37.3796296","LNG":"128.665129","CNTNTS_UPDE":"2013-11-26 17:49:38.0"},{"CNTNTS_AREA":"강원","CNTNTS_AREA2":"정선군","CNTNTS_SN":"17739","CNTNTS_TITLE":"해송","TOBIZ_NM":"","CNTNTS_ADRES":"강원도 정선군 정선읍 5일장길 38-6","CNTNTS_ADRES2":"","CNTNTS_TELNO":"010-2380-1085","CNTNTS_MENU":"해물콧등치기,모듬전,문어회,올챙이국수,묵사발","REPRSNT_PERSON_NM":"","CNTNTS_PRKPLCE_AT":"N","PAY_METHD":"","CNTNTS_URL":"","CNTNTS_TXT":"","LAT":"37.3803026","LNG":"128.6645139","CNTNTS_UPDE":"2013-11-26 17:59:27.0"},{"CNTNTS_AREA":"강원","CNTNTS_AREA2":"정선군","CNTNTS_SN":"17741","CNTNTS_TITLE":"화선식당","TOBIZ_NM":"","CNTNTS_ADRES":"강원도 정선군 고한읍 고한리 62-22","CNTNTS_ADRES2":"","CNTNTS_TELNO":"033-591-5757","CNTNTS_MENU":"우거지된장, 청국장, 오삼불고기, 소머리국밥, 순두부백반","REPRSNT_PERSON_NM":"","CNTNTS_PRKPLCE_AT":"N","PAY_METHD":"","CNTNTS_URL":"","CNTNTS_TXT":"","LAT":"37.2002815","LNG":"128.8547169","CNTNTS_UPDE":"2013-11-27 09:30:00.0"},{"CNTNTS_AREA":"강원","CNTNTS_AREA2":"정선군","CNTNTS_SN":"17743","CNTNTS_TITLE":"화암동굴식육식당","TOBIZ_NM":"","CNTNTS_ADRES":"강원도 정선군 화암면 그림바위길 64","CNTNTS_ADRES2":"","CNTNTS_TELNO":"033-562-1718","CNTNTS_MENU":"등심, 곤드레밥, 갈비탕, 산채비빔밥, 찌개백반","REPRSNT_PERSON_NM":"","CNTNTS_PRKPLCE_AT":"N","PAY_METHD":"","CNTNTS_URL":"","CNTNTS_TXT":"","LAT":"37.3383075","LNG":"128.7883622","CNTNTS_UPDE":"2013-11-27 09:39:23.0"},{"CNTNTS_AREA":"강원","CNTNTS_AREA2":"정선군","CNTNTS_SN":"17744","CNTNTS_TITLE":"황금식당","TOBIZ_NM":"","CNTNTS_ADRES":"강원도 정선군 여량면 여량3길 64","CNTNTS_ADRES2":"","CNTNTS_TELNO":"033-563-5333","CNTNTS_MENU":"아구찜, 오리불고기, 닭도리탕,곤드레나물밥,가정식백반","REPRSNT_PERSON_NM":"","CNTNTS_PRKPLCE_AT":"N","PAY_METHD":"","CNTNTS_URL":"","CNTNTS_TXT":"","LAT":"37.4723999","LNG":"128.7246373","CNTNTS_UPDE":"2013-11-27 09:42:07.0"},{"CNTNTS_AREA":"강원","CNTNTS_AREA2":"정선군","CNTNTS_SN":"17745","CNTNTS_TITLE":"황철수피자정선점","TOBIZ_NM":"","CNTNTS_ADRES":"강원도 정선군 정선읍 봉양6길 33","CNTNTS_ADRES2":"","CNTNTS_TELNO":"033-563-4334","CNTNTS_MENU":"수타피자, 야채피자, 스파게티, 등등","REPRSNT_PERSON_NM":"","CNTNTS_PRKPLCE_AT":"N","PAY_METHD":"","CNTNTS_URL":"","CNTNTS_TXT":"","LAT":"37.3805517","LNG":"128.6633124","CNTNTS_UPDE":"2013-11-27 09:50:18.0"},{"CNTNTS_AREA":"강원","CNTNTS_AREA2":"정선군","CNTNTS_SN":"28685","CNTNTS_TITLE":"정선 5일장 골목 먹거리여행","TOBIZ_NM":"","CNTNTS_ADRES":"강원도 정선군 정선읍 5일장길 48","CNTNTS_ADRES2":"","CNTNTS_TELNO":"033-563-6200","CNTNTS_MENU":"","REPRSNT_PERSON_NM":"","CNTNTS_PRKPLCE_AT":"N","PAY_METHD":"","CNTNTS_URL":"","CNTNTS_TXT":"","LAT":"37.3805379","LNG":"128.6651291","CNTNTS_UPDE":"2015-04-20 23:15:36.0"}]}