{"DESCRIPTION":{"CNTNTS_AREA":"지자체","CNTNTS_AREA2":"시군","CNTNTS_SN":"번호","CNTNTS_TITLE":"업소명","TOBIZ_NM":"업종명","CNTNTS_ADRES":"소재지도로명주소","CNTNTS_ADRES2":"소재지지번주소","CNTNTS_TELNO":"연락처","CNTNTS_MENU":"주요메뉴","REPRSNT_PERSON_NM":"대표자명","CNTNTS_PRKPLCE_AT":"주차장보유여부","PAY_METHD":"결제방법","CNTNTS_URL":"홈페이지주소","CNTNTS_TXT":"주변관광정보","LAT":"경도(WGS84좌표)","LNG":"위도(WGS84좌표)","CNTNTS_UPDE":"데이터기준일자"},"DATA":[{"CNTNTS_AREA":"강원","CNTNTS_AREA2":"평창군","CNTNTS_SN":"4777","CNTNTS_TITLE":"봉평촌막국수","TOBIZ_NM":"","CNTNTS_ADRES":"강원 평창군 봉평면 기풍로 151","CNTNTS_ADRES2":"","CNTNTS_TELNO":"033-335-2080","CNTNTS_MENU":"-메밀막국수, 메밀전병, 메밀묵사발","REPRSNT_PERSON_NM":"","CNTNTS_PRKPLCE_AT":"Y","PAY_METHD":"","CNTNTS_URL":"","CNTNTS_TXT":"","LAT":"37.6159235","LNG":"128.3779142","CNTNTS_UPDE":"2012-04-19 14:34:54.0"},{"CNTNTS_AREA":"강원","CNTNTS_AREA2":"평창군","CNTNTS_SN":"4779","CNTNTS_TITLE":"산촌","TOBIZ_NM":"","CNTNTS_ADRES":"강원 평창군 진부면 오대산로 182","CNTNTS_ADRES2":"","CNTNTS_TELNO":"033-333-5585","CNTNTS_MENU":"-산채비빔밥, 황태구이, 도토리묵","REPRSNT_PERSON_NM":"","CNTNTS_PRKPLCE_AT":"Y","PAY_METHD":"","CNTNTS_URL":"","CNTNTS_TXT":"","LAT":"37.7184248","LNG":"128.602057","CNTNTS_UPDE":"2012-04-19 14:38:17.0"},{"CNTNTS_AREA":"강원","CNTNTS_AREA2":"평창군","CNTNTS_SN":"4780","CNTNTS_TITLE":"황소고집","TOBIZ_NM":"","CNTNTS_ADRES":"강원 평창군 평창중앙로 83-28","CNTNTS_ADRES2":"","CNTNTS_TELNO":"033-333-1818","CNTNTS_MENU":"-살치살, 등심, 갈비살","REPRSNT_PERSON_NM":"","CNTNTS_PRKPLCE_AT":"Y","PAY_METHD":"","CNTNTS_URL":"","CNTNTS_TXT":"","LAT":"37.3697957","LNG":"128.3946932","CNTNTS_UPDE":"2012-04-19 14:40:12.0"},{"CNTNTS_AREA":"강원","CNTNTS_AREA2":"평창군","CNTNTS_SN":"4781","CNTNTS_TITLE":"월미달팽이해장국","TOBIZ_NM":"","CNTNTS_ADRES":"강원 평창군 진부면 오대산로 112-8","CNTNTS_ADRES2":"","CNTNTS_TELNO":"033-332-6818","CNTNTS_MENU":"-달팽이해장국","REPRSNT_PERSON_NM":"","CNTNTS_PRKPLCE_AT":"Y","PAY_METHD":"","CNTNTS_URL":"","CNTNTS_TXT":"","LAT":"37.7123638","LNG":"128.6009271","CNTNTS_UPDE":"2012-04-19 14:42:04.0"},{"CNTNTS_AREA":"강원","CNTNTS_AREA2":"평창군","CNTNTS_SN":"4783","CNTNTS_TITLE":"산들산채식당","TOBIZ_NM":"","CNTNTS_ADRES":"강원 평창군 진부면 오대산로 95","CNTNTS_ADRES2":"","CNTNTS_TELNO":"033-333-7198","CNTNTS_MENU":"- 황태구이정식 19,000원<br>- 산채정식 15,000원<br>- 산채백반 11,000원<br>- 산채비빔밥 8,000원<br>- 황태해장국 9,000원<br>- 황태구이 15,000원","REPRSNT_PERSON_NM":"","CNTNTS_PRKPLCE_AT":"Y","PAY_METHD":"","CNTNTS_URL":"","CNTNTS_TXT":"","LAT":"37.7111131","LNG":"128.5996977","CNTNTS_UPDE":"2012-04-19 15:12:39.0"},{"CNTNTS_AREA":"강원","CNTNTS_AREA2":"평창군","CNTNTS_SN":"4786","CNTNTS_TITLE":"고향막국수","TOBIZ_NM":"","CNTNTS_ADRES":"강원 평창군 봉평면 이효석길 142","CNTNTS_ADRES2":"","CNTNTS_TELNO":"033-336-1211","CNTNTS_MENU":"-메밀막국수, 순메밀국수, 메밀묵사발","REPRSNT_PERSON_NM":"","CNTNTS_PRKPLCE_AT":"Y","PAY_METHD":"","CNTNTS_URL":"","CNTNTS_TXT":"","LAT":"37.6126635","LNG":"128.3713994","CNTNTS_UPDE":"2012-04-19 15:18:48.0"},{"CNTNTS_AREA":"강원","CNTNTS_AREA2":"평창군","CNTNTS_SN":"4789","CNTNTS_TITLE":"남촌막국수","TOBIZ_NM":"","CNTNTS_ADRES":"강원 평창군 봉평면 동이장터길 5","CNTNTS_ADRES2":"","CNTNTS_TELNO":"033-335-0227","CNTNTS_MENU":"-메밀막국수, 메밀부침, 메밀묵사발","REPRSNT_PERSON_NM":"","CNTNTS_PRKPLCE_AT":"Y","PAY_METHD":"","CNTNTS_URL":"","CNTNTS_TXT":"","LAT":"37.6153606","LNG":"128.37784","CNTNTS_UPDE":"2012-04-19 15:22:22.0"},{"CNTNTS_AREA":"강원","CNTNTS_AREA2":"평창군","CNTNTS_SN":"4790","CNTNTS_TITLE":"동광식당","TOBIZ_NM":"","CNTNTS_ADRES":"강원 평창군 대관령면 눈마을길 9","CNTNTS_ADRES2":"","CNTNTS_TELNO":"033-563-0437","CNTNTS_MENU":"-곤드레돌솥밥,엄나무순돌솥밥,한우생등심,오삼불고기","REPRSNT_PERSON_NM":"","CNTNTS_PRKPLCE_AT":"Y","PAY_METHD":"","CNTNTS_URL":"","CNTNTS_TXT":"","LAT":"37.6691317","LNG":"128.7099317","CNTNTS_UPDE":"2012-04-19 15:24:44.0"},{"CNTNTS_AREA":"강원","CNTNTS_AREA2":"평창군","CNTNTS_SN":"4793","CNTNTS_TITLE":"고향이야기","TOBIZ_NM":"","CNTNTS_ADRES":"강원 평창군 대관령면 눈마을길 9","CNTNTS_ADRES2":"","CNTNTS_TELNO":"033-335-5430","CNTNTS_MENU":"-곤드레돌솥밥,엄나무순돌솥밥,한우생등심,오삼불고기","REPRSNT_PERSON_NM":"","CNTNTS_PRKPLCE_AT":"Y","PAY_METHD":"","CNTNTS_URL":"","CNTNTS_TXT":"","LAT":"37.6691317","LNG":"128.7099317","CNTNTS_UPDE":"2012-04-19 15:29:27.0"},{"CNTNTS_AREA":"강원","CNTNTS_AREA2":"평창군","CNTNTS_SN":"4795","CNTNTS_TITLE":"동대산식당","TOBIZ_NM":"","CNTNTS_ADRES":"강원 평창군 진부면 오대산로 182","CNTNTS_ADRES2":"","CNTNTS_TELNO":"033-332-6910","CNTNTS_MENU":"-산채정식, 황태구이, 감자부침","REPRSNT_PERSON_NM":"","CNTNTS_PRKPLCE_AT":"Y","PAY_METHD":"","CNTNTS_URL":"","CNTNTS_TXT":"","LAT":"37.7184248","LNG":"128.602057","CNTNTS_UPDE":"2012-04-19 15:33:14.0"},{"CNTNTS_AREA":"강원","CNTNTS_AREA2":"평창군","CNTNTS_SN":"4799","CNTNTS_TITLE":"메밀먹거리","TOBIZ_NM":"","CNTNTS_ADRES":"강원 평창군 봉평면 메밀꽃길 7","CNTNTS_ADRES2":"","CNTNTS_TELNO":"033-335-0203","CNTNTS_MENU":"-산채정식, 산채비빔밥, 황태해장국, 더덕구이백박","REPRSNT_PERSON_NM":"","CNTNTS_PRKPLCE_AT":"Y","PAY_METHD":"","CNTNTS_URL":"","CNTNTS_TXT":"","LAT":"37.6148181","LNG":"128.3716208","CNTNTS_UPDE":"2012-04-19 15:36:21.0"},{"CNTNTS_AREA":"강원","CNTNTS_AREA2":"평창군","CNTNTS_SN":"4801","CNTNTS_TITLE":"물레방아","TOBIZ_NM":"","CNTNTS_ADRES":"강원 평창군 봉평면 이효석길 152","CNTNTS_ADRES2":"","CNTNTS_TELNO":"033-336-9004","CNTNTS_MENU":"메밀국수5000원, 메밀비빔국수5000원, 묵사발5000원, 양푼이메밀국수10000원,<br>메밀묵무침6000, 메밀부침5000, 메밀전병5000, 한방수육(예약)12000,산채돌솥비빔밥5000<br>메밀만두국5000, 태평추20000","REPRSNT_PERSON_NM":"","CNTNTS_PRKPLCE_AT":"Y","PAY_METHD":"","CNTNTS_URL":"","CNTNTS_TXT":"","LAT":"37.6135283","LNG":"128.3717345","CNTNTS_UPDE":"2012-04-19 15:39:18.0"},{"CNTNTS_AREA":"강원","CNTNTS_AREA2":"평창군","CNTNTS_SN":"4804","CNTNTS_TITLE":"미가연","TOBIZ_NM":"","CNTNTS_ADRES":"강원도 평창군 봉평면 기풍로 158","CNTNTS_ADRES2":"","CNTNTS_TELNO":"033-335-8805","CNTNTS_MENU":"-메밀싹나물 비빔밥,메밀싹 묵무침,메밀막국수,메밀묵탕,메밀전병","REPRSNT_PERSON_NM":"","CNTNTS_PRKPLCE_AT":"Y","PAY_METHD":"","CNTNTS_URL":"","CNTNTS_TXT":"","LAT":"37.6166269","LNG":"128.3777569","CNTNTS_UPDE":"2012-04-19 15:40:48.0"},{"CNTNTS_AREA":"강원","CNTNTS_AREA2":"평창군","CNTNTS_SN":"4813","CNTNTS_TITLE":"부림식당","TOBIZ_NM":"","CNTNTS_ADRES":"강원 평창군 진부면 진부중앙로 70-3","CNTNTS_ADRES2":"","CNTNTS_TELNO":"033-335-7576","CNTNTS_MENU":"","REPRSNT_PERSON_NM":"","CNTNTS_PRKPLCE_AT":"Y","PAY_METHD":"","CNTNTS_URL":"","CNTNTS_TXT":"","LAT":"37.6373703","LNG":"128.5594396","CNTNTS_UPDE":"2012-04-19 15:48:50.0"},{"CNTNTS_AREA":"강원","CNTNTS_AREA2":"평창군","CNTNTS_SN":"4817","CNTNTS_TITLE":"송어의집","TOBIZ_NM":"","CNTNTS_ADRES":"강원 평창군 평창읍 아랫상리길 19-4","CNTNTS_ADRES2":"","CNTNTS_TELNO":"033-332-0505","CNTNTS_MENU":"-송어회, 송어구이, 송어튀김","REPRSNT_PERSON_NM":"","CNTNTS_PRKPLCE_AT":"Y","PAY_METHD":"","CNTNTS_URL":"","CNTNTS_TXT":"","LAT":"37.3636049","LNG":"128.4150279","CNTNTS_UPDE":"2012-04-19 15:54:07.0"},{"CNTNTS_AREA":"강원","CNTNTS_AREA2":"평창군","CNTNTS_SN":"4821","CNTNTS_TITLE":"오대산서울식당","TOBIZ_NM":"","CNTNTS_ADRES":"강원 평창군 진부면 오대산로 83","CNTNTS_ADRES2":"","CNTNTS_TELNO":"033-332-6600","CNTNTS_MENU":"-산채정식, 산채비빔밥, 황태해장국, 더덕구이백박","REPRSNT_PERSON_NM":"","CNTNTS_PRKPLCE_AT":"Y","PAY_METHD":"","CNTNTS_URL":"","CNTNTS_TXT":"","LAT":"0.0","LNG":"0.0","CNTNTS_UPDE":"2012-04-19 15:57:10.0"},{"CNTNTS_AREA":"강원","CNTNTS_AREA2":"평창군","CNTNTS_SN":"4827","CNTNTS_TITLE":"부일가든","TOBIZ_NM":"","CNTNTS_ADRES":"강원도 평창군 진부면 영정게길 12","CNTNTS_ADRES2":"","CNTNTS_TELNO":"033-335-4002","CNTNTS_MENU":"-산채정식, 산책백반","REPRSNT_PERSON_NM":"","CNTNTS_PRKPLCE_AT":"Y","PAY_METHD":"","CNTNTS_URL":"","CNTNTS_TXT":"","LAT":"37.6403306","LNG":"128.5625847","CNTNTS_UPDE":"2012-04-19 16:02:13.0"},{"CNTNTS_AREA":"강원","CNTNTS_AREA2":"평창군","CNTNTS_SN":"3522","CNTNTS_TITLE":"메밀 음식과 감자 옹심이","TOBIZ_NM":"","CNTNTS_ADRES":"강원도 평창군 봉평면 동이장터길 17","CNTNTS_ADRES2":"","CNTNTS_TELNO":"","CNTNTS_MENU":"","REPRSNT_PERSON_NM":"","CNTNTS_PRKPLCE_AT":"","PAY_METHD":"","CNTNTS_URL":"","CNTNTS_TXT":"","LAT":"37.6162547","LNG":"128.3772147","CNTNTS_UPDE":"2012-04-09 18:08:32.0"},{"CNTNTS_AREA":"강원","CNTNTS_AREA2":"평창군","CNTNTS_SN":"3563","CNTNTS_TITLE":"대관령 한우타운","TOBIZ_NM":"","CNTNTS_ADRES":"강원도 평창군 대관령면 횡계리 376-46","CNTNTS_ADRES2":"","CNTNTS_TELNO":"033-332-0001","CNTNTS_MENU":"","REPRSNT_PERSON_NM":"","CNTNTS_PRKPLCE_AT":"","PAY_METHD":"","CNTNTS_URL":"","CNTNTS_TXT":"","LAT":"37.6753605","LNG":"128.6998371","CNTNTS_UPDE":"2012-04-10 10:13:50.0"},{"CNTNTS_AREA":"강원","CNTNTS_AREA2":"평창군","CNTNTS_SN":"3565","CNTNTS_TITLE":"삼청회관(황태전문식당)","TOBIZ_NM":"","CNTNTS_ADRES":"강원도 평창군 대관령면 강변길 98","CNTNTS_ADRES2":"","CNTNTS_TELNO":"033-336-5610 ?","CNTNTS_MENU":"","REPRSNT_PERSON_NM":"","CNTNTS_PRKPLCE_AT":"","PAY_METHD":"","CNTNTS_URL":"","CNTNTS_TXT":"","LAT":"37.6694868","LNG":"128.7097616","CNTNTS_UPDE":"2012-04-10 10:22:36.0"},{"CNTNTS_AREA":"강원","CNTNTS_AREA2":"평창군","CNTNTS_SN":"28256","CNTNTS_TITLE":"봉평차이나 해물갈비 짬뽕","TOBIZ_NM":"","CNTNTS_ADRES":"강원도 평창군 봉평면 기풍로 136","CNTNTS_ADRES2":"","CNTNTS_TELNO":"033-335-9888","CNTNTS_MENU":"","REPRSNT_PERSON_NM":"","CNTNTS_PRKPLCE_AT":"","PAY_METHD":"","CNTNTS_URL":"","CNTNTS_TXT":"","LAT":"37.6146792","LNG":"128.3784663","CNTNTS_UPDE":"2014-07-17 12:27:34.0"},{"CNTNTS_AREA":"강원","CNTNTS_AREA2":"평창군","CNTNTS_SN":"7890","CNTNTS_TITLE":"안정식당","TOBIZ_NM":"","CNTNTS_ADRES":"강원도 평창군 평창읍 종부로 70","CNTNTS_ADRES2":"","CNTNTS_TELNO":"033-334-2982","CNTNTS_MENU":"정통 쌈밥 정식 전문점<br>영양돌솥밥, 삽겹살(돌판) 등<br>[BC카드 TOP포인트 적립 및 사용가능]","REPRSNT_PERSON_NM":"","CNTNTS_PRKPLCE_AT":"Y","PAY_METHD":"","CNTNTS_URL":"","CNTNTS_TXT":"","LAT":"37.3599029","LNG":"128.3880623","CNTNTS_UPDE":"2012-07-05 17:44:24.0"},{"CNTNTS_AREA":"강원","CNTNTS_AREA2":"평창군","CNTNTS_SN":"8066","CNTNTS_TITLE":"감자네식당펜션","TOBIZ_NM":"","CNTNTS_ADRES":"강원도 평창군 진부면 두일리 142-2","CNTNTS_ADRES2":"","CNTNTS_TELNO":"010-4086-1948","CNTNTS_MENU":"","REPRSNT_PERSON_NM":"","CNTNTS_PRKPLCE_AT":"","PAY_METHD":"","CNTNTS_URL":"","CNTNTS_TXT":"","LAT":"37.6875373","LNG":"128.5591983","CNTNTS_UPDE":"2012-08-24 21:46:00.0"},{"CNTNTS_AREA":"강원","CNTNTS_AREA2":"평창군","CNTNTS_SN":"8303","CNTNTS_TITLE":"평창 부일식당","TOBIZ_NM":"","CNTNTS_ADRES":"강원도 평창군 진부면 진부중앙로 104","CNTNTS_ADRES2":"","CNTNTS_TELNO":"033-335-7232","CNTNTS_MENU":"","REPRSNT_PERSON_NM":"","CNTNTS_PRKPLCE_AT":"","PAY_METHD":"","CNTNTS_URL":"","CNTNTS_TXT":"","LAT":"37.6400037","LNG":"128.5612304","CNTNTS_UPDE":"2012-11-21 16:06:23.0"},{"CNTNTS_AREA":"강원","CNTNTS_AREA2":"평창군","CNTNTS_SN":"7652","CNTNTS_TITLE":"금당계곡 송어횟집","TOBIZ_NM":"","CNTNTS_ADRES":"강원도 평창군 봉평면 금당계곡로 1883","CNTNTS_ADRES2":"","CNTNTS_TELNO":"033-333-9922","CNTNTS_MENU":"싱싱한 송어회, 얼큰하고 구수한 매운탕, 바삭한 송어튀김","REPRSNT_PERSON_NM":"","CNTNTS_PRKPLCE_AT":"Y","PAY_METHD":"","CNTNTS_URL":"","CNTNTS_TXT":"","LAT":"37.5614748","LNG":"128.3982387","CNTNTS_UPDE":"2012-05-20 15:07:44.0"},{"CNTNTS_AREA":"강원","CNTNTS_AREA2":"평창군","CNTNTS_SN":"7800","CNTNTS_TITLE":"진미식당","TOBIZ_NM":"","CNTNTS_ADRES":"강원도 평창군 봉평면  기풍로 186-4","CNTNTS_ADRES2":"","CNTNTS_TELNO":"033-335-0242","CNTNTS_MENU":"메밀막국수 전문점<br>[BC카드 TOP포인트 적립 및 사용가능]","REPRSNT_PERSON_NM":"","CNTNTS_PRKPLCE_AT":"Y","PAY_METHD":"","CNTNTS_URL":"","CNTNTS_TXT":"","LAT":"37.6188218","LNG":"128.3769365","CNTNTS_UPDE":"2012-06-18 15:18:31.0"},{"CNTNTS_AREA":"강원","CNTNTS_AREA2":"평창군","CNTNTS_SN":"28389","CNTNTS_TITLE":"[평창맛집] 미가연","TOBIZ_NM":"","CNTNTS_ADRES":"강원도 평창군 봉평면 기풍로 108","CNTNTS_ADRES2":"","CNTNTS_TELNO":"010-2206-4017","CNTNTS_MENU":"","REPRSNT_PERSON_NM":"","CNTNTS_PRKPLCE_AT":"","PAY_METHD":"","CNTNTS_URL":"","CNTNTS_TXT":"","LAT":"37.6119954","LNG":"128.3783168","CNTNTS_UPDE":"2014-10-14 18:29:42.0"},{"CNTNTS_AREA":"강원","CNTNTS_AREA2":"평창군","CNTNTS_SN":"7801","CNTNTS_TITLE":"옛골","TOBIZ_NM":"","CNTNTS_ADRES":"강원도 평창군 봉평면 창동리 403-6","CNTNTS_ADRES2":"","CNTNTS_TELNO":"033-336-3360","CNTNTS_MENU":"순메밀국수, 순메밀묵사발, 순메밀부침, 순메밀전병, 옛골수육<br>[BC카드 TOP포인트 적립 및 사용가능]","REPRSNT_PERSON_NM":"","CNTNTS_PRKPLCE_AT":"Y","PAY_METHD":"","CNTNTS_URL":"","CNTNTS_TXT":"","LAT":"37.6147811","LNG":"128.3761765","CNTNTS_UPDE":"2012-06-18 15:25:00.0"},{"CNTNTS_AREA":"강원","CNTNTS_AREA2":"평창군","CNTNTS_SN":"7802","CNTNTS_TITLE":"미가연","TOBIZ_NM":"","CNTNTS_ADRES":"강원도 평창군 봉평면 기풍로 158","CNTNTS_ADRES2":"","CNTNTS_TELNO":"033-335-8805~6","CNTNTS_MENU":"메밀막국수, 메밀싹육회, 메밀음식 전문점<br>[BC카드 TOP포인트 적립 및 사용가능]","REPRSNT_PERSON_NM":"","CNTNTS_PRKPLCE_AT":"Y","PAY_METHD":"","CNTNTS_URL":"","CNTNTS_TXT":"","LAT":"37.6166269","LNG":"128.3777569","CNTNTS_UPDE":"2012-06-18 15:45:22.0"},{"CNTNTS_AREA":"강원","CNTNTS_AREA2":"평창군","CNTNTS_SN":"7803","CNTNTS_TITLE":"고향막국수","TOBIZ_NM":"","CNTNTS_ADRES":"강원도 평창군 봉평면 창동리 542-5","CNTNTS_ADRES2":"","CNTNTS_TELNO":"033-336-1211","CNTNTS_MENU":"순메밀국수, 막국수, 메밀전병, 메밀묵<br>[BC카드 TOP포인트 적립 및 사용가능]","REPRSNT_PERSON_NM":"","CNTNTS_PRKPLCE_AT":"Y","PAY_METHD":"","CNTNTS_URL":"","CNTNTS_TXT":"","LAT":"37.6128093","LNG":"128.3711668","CNTNTS_UPDE":"2012-06-18 15:49:40.0"},{"CNTNTS_AREA":"강원","CNTNTS_AREA2":"평창군","CNTNTS_SN":"7804","CNTNTS_TITLE":"용평한우관","TOBIZ_NM":"","CNTNTS_ADRES":"강원도 평창군 대관령면  송천2길 2","CNTNTS_ADRES2":"","CNTNTS_TELNO":"033-335-6577","CNTNTS_MENU":"대관령 한우, 생등심, 풍천민물장어, 돼지갈비<br>[BC카드 TOP포인트 적립 및 사용가능]","REPRSNT_PERSON_NM":"","CNTNTS_PRKPLCE_AT":"Y","PAY_METHD":"","CNTNTS_URL":"","CNTNTS_TXT":"","LAT":"37.6702605","LNG":"128.7111599","CNTNTS_UPDE":"2012-06-18 15:52:55.0"},{"CNTNTS_AREA":"강원","CNTNTS_AREA2":"평창군","CNTNTS_SN":"7805","CNTNTS_TITLE":"대도식당","TOBIZ_NM":"","CNTNTS_ADRES":"강원도 평창군 대관령면  대관령로 122","CNTNTS_ADRES2":"","CNTNTS_TELNO":"033-336-5400","CNTNTS_MENU":"대관령 청정 쇠고기 생등심, 등심 불고기, 생삼겹<br>[BC카드 TOp포인트 적립 및 사용가능]","REPRSNT_PERSON_NM":"","CNTNTS_PRKPLCE_AT":"Y","PAY_METHD":"","CNTNTS_URL":"","CNTNTS_TXT":"","LAT":"37.6719671","LNG":"128.7093488","CNTNTS_UPDE":"2012-06-18 16:06:56.0"},{"CNTNTS_AREA":"강원","CNTNTS_AREA2":"평창군","CNTNTS_SN":"7854","CNTNTS_TITLE":"바삭","TOBIZ_NM":"","CNTNTS_ADRES":"강원도 평창군 진부면 하진부리 118-2","CNTNTS_ADRES2":"","CNTNTS_TELNO":"033-336-6500","CNTNTS_MENU":"","REPRSNT_PERSON_NM":"","CNTNTS_PRKPLCE_AT":"","PAY_METHD":"","CNTNTS_URL":"","CNTNTS_TXT":"","LAT":"37.6364418","LNG":"128.5580141","CNTNTS_UPDE":"2012-06-22 21:44:18.0"},{"CNTNTS_AREA":"강원","CNTNTS_AREA2":"평창군","CNTNTS_SN":"17921","CNTNTS_TITLE":"가벼슬","TOBIZ_NM":"","CNTNTS_ADRES":"강원도 평창군 봉평면 창동리 135","CNTNTS_ADRES2":"","CNTNTS_TELNO":"033-336-0609","CNTNTS_MENU":"곤드레밥, 묵은지백숙, 묵은지목살전골, 닭도리탕, 메밀부침개, 등등","REPRSNT_PERSON_NM":"","CNTNTS_PRKPLCE_AT":"N","PAY_METHD":"","CNTNTS_URL":"","CNTNTS_TXT":"","LAT":"37.6164669","LNG":"128.3862528","CNTNTS_UPDE":"2013-11-29 09:32:58.0"},{"CNTNTS_AREA":"강원","CNTNTS_AREA2":"평창군","CNTNTS_SN":"17924","CNTNTS_TITLE":"강남식당","TOBIZ_NM":"","CNTNTS_ADRES":"강원도 평창군 평창읍 중리 314-4","CNTNTS_ADRES2":"","CNTNTS_TELNO":"033-332-2751","CNTNTS_MENU":"불백, 생등심, 삼겹살, 더덕구이, 청국장, 곤드레밥 등등...","REPRSNT_PERSON_NM":"","CNTNTS_PRKPLCE_AT":"N","PAY_METHD":"","CNTNTS_URL":"","CNTNTS_TXT":"","LAT":"37.3678898","LNG":"128.3971377","CNTNTS_UPDE":"2013-11-29 09:47:32.0"},{"CNTNTS_AREA":"강원","CNTNTS_AREA2":"평창군","CNTNTS_SN":"17926","CNTNTS_TITLE":"금당가는길목","TOBIZ_NM":"","CNTNTS_ADRES":"강원도 평창군 용평면 금당길 35","CNTNTS_ADRES2":"","CNTNTS_TELNO":"033-332-6176","CNTNTS_MENU":"곤드레밥,","REPRSNT_PERSON_NM":"","CNTNTS_PRKPLCE_AT":"N","PAY_METHD":"","CNTNTS_URL":"","CNTNTS_TXT":"","LAT":"37.5656685","LNG":"128.427311","CNTNTS_UPDE":"2013-11-29 09:52:20.0"},{"CNTNTS_AREA":"강원","CNTNTS_AREA2":"평창군","CNTNTS_SN":"17929","CNTNTS_TITLE":"금당계곡송어횟집","TOBIZ_NM":"","CNTNTS_ADRES":"강원도 평창군 봉평면 유포리 1-6","CNTNTS_ADRES2":"","CNTNTS_TELNO":"033-332-5533","CNTNTS_MENU":"송어회,","REPRSNT_PERSON_NM":"","CNTNTS_PRKPLCE_AT":"N","PAY_METHD":"","CNTNTS_URL":"","CNTNTS_TXT":"","LAT":"37.5611698","LNG":"128.3980843","CNTNTS_UPDE":"2013-11-29 10:04:41.0"},{"CNTNTS_AREA":"강원","CNTNTS_AREA2":"평창군","CNTNTS_SN":"17930","CNTNTS_TITLE":"금호순대","TOBIZ_NM":"","CNTNTS_ADRES":"강원도 평창군 방림면 서동로 1324-10","CNTNTS_ADRES2":"","CNTNTS_TELNO":"033-334-8890","CNTNTS_MENU":"사골순대국, 찹쌀순대, 내장전골, 내장볶음, 순대볶음, 모듬볶음, 등등","REPRSNT_PERSON_NM":"","CNTNTS_PRKPLCE_AT":"N","PAY_METHD":"","CNTNTS_URL":"","CNTNTS_TXT":"","LAT":"37.4263345","LNG":"128.3920804","CNTNTS_UPDE":"2013-11-29 10:08:41.0"},{"CNTNTS_AREA":"강원","CNTNTS_AREA2":"평창군","CNTNTS_SN":"17937","CNTNTS_TITLE":"남경막국수","TOBIZ_NM":"","CNTNTS_ADRES":"강원도 평창군 진부면 상진부리 259","CNTNTS_ADRES2":"","CNTNTS_TELNO":"033-335-8968","CNTNTS_MENU":"막국수,","REPRSNT_PERSON_NM":"","CNTNTS_PRKPLCE_AT":"N","PAY_METHD":"","CNTNTS_URL":"","CNTNTS_TXT":"","LAT":"37.6472711","LNG":"128.5656615","CNTNTS_UPDE":"2013-11-29 10:34:11.0"},{"CNTNTS_AREA":"강원","CNTNTS_AREA2":"평창군","CNTNTS_SN":"17939","CNTNTS_TITLE":"다키닥팜","TOBIZ_NM":"","CNTNTS_ADRES":"강원도 평창군 봉평면 유포리 82-11","CNTNTS_ADRES2":"","CNTNTS_TELNO":"033-333-5262","CNTNTS_MENU":"생오리숯불구이, 오리한방백숙, 날개감자탕 등등","REPRSNT_PERSON_NM":"","CNTNTS_PRKPLCE_AT":"N","PAY_METHD":"","CNTNTS_URL":"","CNTNTS_TXT":"","LAT":"37.5488845","LNG":"128.3916643","CNTNTS_UPDE":"2013-11-29 10:41:13.0"},{"CNTNTS_AREA":"강원","CNTNTS_AREA2":"평창군","CNTNTS_SN":"17943","CNTNTS_TITLE":"대영","TOBIZ_NM":"","CNTNTS_ADRES":"강원도 평창군 평창읍 하리 417-1","CNTNTS_ADRES2":"","CNTNTS_TELNO":"033-332-2754","CNTNTS_MENU":"한우등심, 삼겹살, 해장국 등등","REPRSNT_PERSON_NM":"","CNTNTS_PRKPLCE_AT":"N","PAY_METHD":"","CNTNTS_URL":"","CNTNTS_TXT":"","LAT":"37.3681728","LNG":"128.380387","CNTNTS_UPDE":"2013-11-29 10:59:40.0"},{"CNTNTS_AREA":"강원","CNTNTS_AREA2":"평창군","CNTNTS_SN":"17945","CNTNTS_TITLE":"메밀이야기","TOBIZ_NM":"","CNTNTS_ADRES":"강원도 평창군 평창읍 하리 55-10","CNTNTS_ADRES2":"","CNTNTS_TELNO":"033-334-3456","CNTNTS_MENU":"메밀부치기, 메밀전병, 메밀빈대떡, 메밀비빔국수, 메밀묵사발 등등","REPRSNT_PERSON_NM":"","CNTNTS_PRKPLCE_AT":"N","PAY_METHD":"","CNTNTS_URL":"","CNTNTS_TXT":"","LAT":"37.366745","LNG":"128.3948364","CNTNTS_UPDE":"2013-11-29 11:04:07.0"},{"CNTNTS_AREA":"강원","CNTNTS_AREA2":"평창군","CNTNTS_SN":"17948","CNTNTS_TITLE":"메밀촌과일촌","TOBIZ_NM":"","CNTNTS_ADRES":"강원도 평창군 평창읍 백오로 80","CNTNTS_ADRES2":"","CNTNTS_TELNO":"033-333-8989","CNTNTS_MENU":"메밀모듬전, 감자전, 등등","REPRSNT_PERSON_NM":"","CNTNTS_PRKPLCE_AT":"N","PAY_METHD":"","CNTNTS_URL":"","CNTNTS_TXT":"","LAT":"37.3674224","LNG":"128.394359","CNTNTS_UPDE":"2013-11-29 11:19:31.0"},{"CNTNTS_AREA":"강원","CNTNTS_AREA2":"평창군","CNTNTS_SN":"17952","CNTNTS_TITLE":"별미회관","TOBIZ_NM":"","CNTNTS_ADRES":"강원도 평창군 대관령면 수하리 323-1","CNTNTS_ADRES2":"","CNTNTS_TELNO":"033-336-3325","CNTNTS_MENU":"오삼불고기, 갈비탕 등등","REPRSNT_PERSON_NM":"","CNTNTS_PRKPLCE_AT":"N","PAY_METHD":"","CNTNTS_URL":"","CNTNTS_TXT":"","LAT":"37.6728563","LNG":"128.7083302","CNTNTS_UPDE":"2013-11-29 11:46:44.0"},{"CNTNTS_AREA":"강원","CNTNTS_AREA2":"평창군","CNTNTS_SN":"17955","CNTNTS_TITLE":"비로봉식당","TOBIZ_NM":"","CNTNTS_ADRES":"강원도 평창군 진부면 오대산로 1215-89","CNTNTS_ADRES2":"","CNTNTS_TELNO":"033-332-6597","CNTNTS_MENU":"황태구이정식, 산채정식, 산채황태국백반 등등","REPRSNT_PERSON_NM":"","CNTNTS_PRKPLCE_AT":"N","PAY_METHD":"","CNTNTS_URL":"","CNTNTS_TXT":"","LAT":"37.7706139","LNG":"128.5721311","CNTNTS_UPDE":"2013-11-29 11:54:07.0"},{"CNTNTS_AREA":"강원","CNTNTS_AREA2":"평창군","CNTNTS_SN":"17957","CNTNTS_TITLE":"산채랑황태랑","TOBIZ_NM":"","CNTNTS_ADRES":"강원도 평창군 봉평면 면온리 880-7","CNTNTS_ADRES2":"","CNTNTS_TELNO":"033-332-8877","CNTNTS_MENU":"황태전골, 황태찜, 황태구이정식, 더덕구이정식, 곤드레밥 등등","REPRSNT_PERSON_NM":"","CNTNTS_PRKPLCE_AT":"N","PAY_METHD":"","CNTNTS_URL":"","CNTNTS_TXT":"","LAT":"37.5754539","LNG":"128.3394097","CNTNTS_UPDE":"2013-11-29 12:01:46.0"},{"CNTNTS_AREA":"강원","CNTNTS_AREA2":"평창군","CNTNTS_SN":"17962","CNTNTS_TITLE":"살구실막국수","TOBIZ_NM":"","CNTNTS_ADRES":"강원도 평창군 평창읍 후평길 37","CNTNTS_ADRES2":"","CNTNTS_TELNO":"033-34-0649","CNTNTS_MENU":"메밀막국수,","REPRSNT_PERSON_NM":"","CNTNTS_PRKPLCE_AT":"N","PAY_METHD":"","CNTNTS_URL":"","CNTNTS_TXT":"","LAT":"37.3764245","LNG":"128.3883416","CNTNTS_UPDE":"2013-11-29 13:39:44.0"},{"CNTNTS_AREA":"강원","CNTNTS_AREA2":"평창군","CNTNTS_SN":"17965","CNTNTS_TITLE":"삼삼오식당","TOBIZ_NM":"","CNTNTS_ADRES":"강원도 평창군 평창읍 평창중앙로 16","CNTNTS_ADRES2":"","CNTNTS_TELNO":"033-332-2335","CNTNTS_MENU":"불백, 생등심, 삼겹살, 곱창구이, 오삼불고기 등등","REPRSNT_PERSON_NM":"","CNTNTS_PRKPLCE_AT":"N","PAY_METHD":"","CNTNTS_URL":"","CNTNTS_TXT":"","LAT":"37.3666626","LNG":"128.3957629","CNTNTS_UPDE":"2013-11-29 13:49:09.0"},{"CNTNTS_AREA":"강원","CNTNTS_AREA2":"평창군","CNTNTS_SN":"17969","CNTNTS_TITLE":"삼오정","TOBIZ_NM":"","CNTNTS_ADRES":"강원도 평창군 평창읍 평창중앙로 48","CNTNTS_ADRES2":"","CNTNTS_TELNO":"033-333-3535","CNTNTS_MENU":"등심, 갈비살, 삼겹살, 오삼불고기, 불백 등등","REPRSNT_PERSON_NM":"","CNTNTS_PRKPLCE_AT":"N","PAY_METHD":"","CNTNTS_URL":"","CNTNTS_TXT":"","LAT":"37.3680413","LNG":"128.3957566","CNTNTS_UPDE":"2013-11-29 13:55:31.0"},{"CNTNTS_AREA":"강원","CNTNTS_AREA2":"평창군","CNTNTS_SN":"17970","CNTNTS_TITLE":"승일식당","TOBIZ_NM":"","CNTNTS_ADRES":"강원도 평창군 평창읍 향교길 80","CNTNTS_ADRES2":"","CNTNTS_TELNO":"033-332-2958","CNTNTS_MENU":"메밀막국수, 비빔막국수,","REPRSNT_PERSON_NM":"","CNTNTS_PRKPLCE_AT":"N","PAY_METHD":"","CNTNTS_URL":"","CNTNTS_TXT":"","LAT":"37.368945","LNG":"128.3920073","CNTNTS_UPDE":"2013-11-29 13:59:20.0"},{"CNTNTS_AREA":"강원","CNTNTS_AREA2":"평창군","CNTNTS_SN":"17974","CNTNTS_TITLE":"유정식당","TOBIZ_NM":"","CNTNTS_ADRES":"강원도 평창군 진부면 오대산로 1215-89","CNTNTS_ADRES2":"","CNTNTS_TELNO":"033-332-6818","CNTNTS_MENU":"산채정식, 메밀막국수","REPRSNT_PERSON_NM":"","CNTNTS_PRKPLCE_AT":"N","PAY_METHD":"","CNTNTS_URL":"","CNTNTS_TXT":"","LAT":"37.7706139","LNG":"128.5721311","CNTNTS_UPDE":"2013-11-29 14:09:47.0"},{"CNTNTS_AREA":"강원","CNTNTS_AREA2":"평창군","CNTNTS_SN":"17978","CNTNTS_TITLE":"청옥막국수","TOBIZ_NM":"","CNTNTS_ADRES":"강원도 평창군 평창읍 하리 70-14","CNTNTS_ADRES2":"","CNTNTS_TELNO":"033-333-3311","CNTNTS_MENU":"물막국수, 비빔막국수, 만두국, 해물칼국수, 등등","REPRSNT_PERSON_NM":"","CNTNTS_PRKPLCE_AT":"N","PAY_METHD":"","CNTNTS_URL":"","CNTNTS_TXT":"","LAT":"37.3670967","LNG":"128.3923184","CNTNTS_UPDE":"2013-11-29 14:24:39.0"},{"CNTNTS_AREA":"강원","CNTNTS_AREA2":"평창군","CNTNTS_SN":"17980","CNTNTS_TITLE":"초원갈비","TOBIZ_NM":"","CNTNTS_ADRES":"강원도 평창군 평창읍 중리 313-3","CNTNTS_ADRES2":"","CNTNTS_TELNO":"033-333-3388","CNTNTS_MENU":"살치살, 등심, 소갈비, 불고기, 등등","REPRSNT_PERSON_NM":"","CNTNTS_PRKPLCE_AT":"N","PAY_METHD":"","CNTNTS_URL":"","CNTNTS_TXT":"","LAT":"37.3673413","LNG":"128.3970648","CNTNTS_UPDE":"2013-11-29 14:29:38.0"},{"CNTNTS_AREA":"강원","CNTNTS_AREA2":"평창군","CNTNTS_SN":"17983","CNTNTS_TITLE":"평창갈비분점","TOBIZ_NM":"","CNTNTS_ADRES":"강원도 평창군 평창읍 하리 44-4","CNTNTS_ADRES2":"","CNTNTS_TELNO":"033-332-2524","CNTNTS_MENU":"생갈비, 양념갈비, 돼지갈비 등등","REPRSNT_PERSON_NM":"","CNTNTS_PRKPLCE_AT":"N","PAY_METHD":"","CNTNTS_URL":"","CNTNTS_TXT":"","LAT":"37.3667052","LNG":"128.396515","CNTNTS_UPDE":"2013-11-29 14:35:04.0"},{"CNTNTS_AREA":"강원","CNTNTS_AREA2":"평창군","CNTNTS_SN":"17984","CNTNTS_TITLE":"풀내음","TOBIZ_NM":"","CNTNTS_ADRES":"강원도 평창군 봉평면 원길리 산202","CNTNTS_ADRES2":"","CNTNTS_TELNO":"033-335-0034","CNTNTS_MENU":"메밀국수, 메밀비빔국수, 메밀만두국, 메밀칼국수, 메밀묵, 메밀묵말이, 등등","REPRSNT_PERSON_NM":"","CNTNTS_PRKPLCE_AT":"Y","PAY_METHD":"","CNTNTS_URL":"","CNTNTS_TXT":"","LAT":"37.6479684","LNG":"128.3689245","CNTNTS_UPDE":"2013-11-29 14:41:04.0"},{"CNTNTS_AREA":"강원","CNTNTS_AREA2":"평창군","CNTNTS_SN":"17986","CNTNTS_TITLE":"향촌","TOBIZ_NM":"","CNTNTS_ADRES":"강원도 평창군 봉평면 무이리 1107-2","CNTNTS_ADRES2":"","CNTNTS_TELNO":"033-334-5760","CNTNTS_MENU":"토종닭백숙, 오리훈제구이, 영양죽, 도토리묵,","REPRSNT_PERSON_NM":"","CNTNTS_PRKPLCE_AT":"N","PAY_METHD":"","CNTNTS_URL":"","CNTNTS_TXT":"","LAT":"37.587713","LNG":"128.3122774","CNTNTS_UPDE":"2013-11-29 14:52:19.0"},{"CNTNTS_AREA":"강원","CNTNTS_AREA2":"평창군","CNTNTS_SN":"17988","CNTNTS_TITLE":"황보숮불갈비","TOBIZ_NM":"","CNTNTS_ADRES":"강원도 평창군 평창읍 하리 58-4","CNTNTS_ADRES2":"","CNTNTS_TELNO":"033-334-2535","CNTNTS_MENU":"소갈비, 돼지갈비 등등","REPRSNT_PERSON_NM":"","CNTNTS_PRKPLCE_AT":"N","PAY_METHD":"","CNTNTS_URL":"","CNTNTS_TXT":"","LAT":"37.3668644","LNG":"128.3922596","CNTNTS_UPDE":"2013-11-29 14:56:29.0"},{"CNTNTS_AREA":"강원","CNTNTS_AREA2":"평창군","CNTNTS_SN":"17934","CNTNTS_TITLE":"기화양어장횟집","TOBIZ_NM":"","CNTNTS_ADRES":"강원도 평창군 미탄면 기화리 산33","CNTNTS_ADRES2":"","CNTNTS_TELNO":"033-332-6277","CNTNTS_MENU":"철갑상어, 송어회, 송어구이, 송어튀김 등등","REPRSNT_PERSON_NM":"","CNTNTS_PRKPLCE_AT":"N","PAY_METHD":"","CNTNTS_URL":"","CNTNTS_TXT":"","LAT":"37.3097584","LNG":"128.5349924","CNTNTS_UPDE":"2013-11-29 10:26:52.0"},{"CNTNTS_AREA":"강원","CNTNTS_AREA2":"평창군","CNTNTS_SN":"18565","CNTNTS_TITLE":"남경식당","TOBIZ_NM":"","CNTNTS_ADRES":"강원도 평창군 대관령면 횡계리 산194","CNTNTS_ADRES2":"","CNTNTS_TELNO":"033-335-5892","CNTNTS_MENU":"꿩만두국,꿩만두","REPRSNT_PERSON_NM":"","CNTNTS_PRKPLCE_AT":"Y","PAY_METHD":"","CNTNTS_URL":"","CNTNTS_TXT":"","LAT":"37.7114889","LNG":"128.7202676","CNTNTS_UPDE":"2013-12-09 21:15:15.0"},{"CNTNTS_AREA":"강원","CNTNTS_AREA2":"평창군","CNTNTS_SN":"19610","CNTNTS_TITLE":"수라","TOBIZ_NM":"","CNTNTS_ADRES":"강원도 평창군 평창읍 천변리 38-1","CNTNTS_ADRES2":"","CNTNTS_TELNO":"033-333-3354","CNTNTS_MENU":"수라정식, 불고기정식, 생선정식","REPRSNT_PERSON_NM":"","CNTNTS_PRKPLCE_AT":"N","PAY_METHD":"","CNTNTS_URL":"","CNTNTS_TXT":"","LAT":"0.0","LNG":"0.0","CNTNTS_UPDE":"2013-12-11 15:13:58.0"},{"CNTNTS_AREA":"강원","CNTNTS_AREA2":"평창군","CNTNTS_SN":"28686","CNTNTS_TITLE":"초가집옛골","TOBIZ_NM":"","CNTNTS_ADRES":"강원도 평창군 봉평면 창동리 404-1","CNTNTS_ADRES2":"","CNTNTS_TELNO":"033-336-3360","CNTNTS_MENU":"","REPRSNT_PERSON_NM":"","CNTNTS_PRKPLCE_AT":"N","PAY_METHD":"","CNTNTS_URL":"","CNTNTS_TXT":"","LAT":"37.6150677","LNG":"128.3764441","CNTNTS_UPDE":"2015-04-20 23:24:09.0"}]}