{"DESCRIPTION":{"CNTNTS_AREA":"지자체","CNTNTS_AREA2":"시군","CNTNTS_SN":"번호","CNTNTS_TITLE":"업소명","TOBIZ_NM":"업종명","CNTNTS_ADRES":"소재지도로명주소","CNTNTS_ADRES2":"소재지지번주소","CNTNTS_TELNO":"연락처","CNTNTS_MENU":"주요메뉴","REPRSNT_PERSON_NM":"대표자명","CNTNTS_PRKPLCE_AT":"주차장보유여부","PAY_METHD":"결제방법","CNTNTS_URL":"홈페이지주소","CNTNTS_TXT":"주변관광정보","LAT":"경도(WGS84좌표)","LNG":"위도(WGS84좌표)","CNTNTS_UPDE":"데이터기준일자"},"DATA":[{"CNTNTS_AREA":"강원","CNTNTS_AREA2":"영월군","CNTNTS_SN":"1184","CNTNTS_TITLE":"동강 다슬기","TOBIZ_NM":"","CNTNTS_ADRES":"강원도 영월군 영월읍 영월로 2105","CNTNTS_ADRES2":"","CNTNTS_TELNO":"033-374-2821","CNTNTS_MENU":"다슬기 해장국","REPRSNT_PERSON_NM":"","CNTNTS_PRKPLCE_AT":"Y","PAY_METHD":"","CNTNTS_URL":"","CNTNTS_TXT":"","LAT":"37.1826998","LNG":"128.4803173","CNTNTS_UPDE":"2012-03-28 22:02:11.0"},{"CNTNTS_AREA":"강원","CNTNTS_AREA2":"영월군","CNTNTS_SN":"1508","CNTNTS_TITLE":"연하골장작불곰탕","TOBIZ_NM":"","CNTNTS_ADRES":"강원도 영월군 영월읍 연하리 498-4번지","CNTNTS_ADRES2":"","CNTNTS_TELNO":"033-374-9195","CNTNTS_MENU":"곰탕","REPRSNT_PERSON_NM":"","CNTNTS_PRKPLCE_AT":"N","PAY_METHD":"","CNTNTS_URL":"","CNTNTS_TXT":"","LAT":"37.1900858","LNG":"128.5467507","CNTNTS_UPDE":"2012-03-28 22:02:11.0"},{"CNTNTS_AREA":"강원","CNTNTS_AREA2":"영월군","CNTNTS_SN":"1512","CNTNTS_TITLE":"고인돌","TOBIZ_NM":"","CNTNTS_ADRES":"강원도 영월군 영월읍 하송로 151","CNTNTS_ADRES2":"","CNTNTS_TELNO":"033-374-9244","CNTNTS_MENU":"갈치조림, 삼겹살","REPRSNT_PERSON_NM":"","CNTNTS_PRKPLCE_AT":"Y","PAY_METHD":"","CNTNTS_URL":"","CNTNTS_TXT":"","LAT":"37.1765493","LNG":"128.4571632","CNTNTS_UPDE":"2012-03-28 22:02:11.0"},{"CNTNTS_AREA":"강원","CNTNTS_AREA2":"영월군","CNTNTS_SN":"1515","CNTNTS_TITLE":"태백실비촌","TOBIZ_NM":"","CNTNTS_ADRES":"강원도 영월군 영월읍 하송로 116","CNTNTS_ADRES2":"","CNTNTS_TELNO":"033-373-9122","CNTNTS_MENU":"장어구이,삽겹살","REPRSNT_PERSON_NM":"","CNTNTS_PRKPLCE_AT":"N","PAY_METHD":"","CNTNTS_URL":"","CNTNTS_TXT":"","LAT":"37.1791149","LNG":"128.4590075","CNTNTS_UPDE":"2012-03-28 22:02:11.0"},{"CNTNTS_AREA":"강원","CNTNTS_AREA2":"영월군","CNTNTS_SN":"1519","CNTNTS_TITLE":"동강빌리지","TOBIZ_NM":"","CNTNTS_ADRES":"강원도 영월군 영월읍 동강로 223","CNTNTS_ADRES2":"","CNTNTS_TELNO":"033-374-7151","CNTNTS_MENU":"닭도리탕,매운탕","REPRSNT_PERSON_NM":"","CNTNTS_PRKPLCE_AT":"Y","PAY_METHD":"","CNTNTS_URL":"","CNTNTS_TXT":"","LAT":"37.200451","LNG":"128.5073317","CNTNTS_UPDE":"2012-03-28 22:02:11.0"},{"CNTNTS_AREA":"강원","CNTNTS_AREA2":"영월군","CNTNTS_SN":"1521","CNTNTS_TITLE":"풍년쌈밥","TOBIZ_NM":"","CNTNTS_ADRES":"강원도 영월군 주천면 도천길 29","CNTNTS_ADRES2":"","CNTNTS_TELNO":"033-372-7776","CNTNTS_MENU":"쌈밥정식","REPRSNT_PERSON_NM":"","CNTNTS_PRKPLCE_AT":"Y","PAY_METHD":"","CNTNTS_URL":"","CNTNTS_TXT":"","LAT":"37.2715024","LNG":"128.2645292","CNTNTS_UPDE":"2012-03-28 22:02:11.0"},{"CNTNTS_AREA":"강원","CNTNTS_AREA2":"영월군","CNTNTS_SN":"1523","CNTNTS_TITLE":"솔잎가든","TOBIZ_NM":"","CNTNTS_ADRES":"강원도 영월군 영월읍 청령포로 48-5","CNTNTS_ADRES2":"","CNTNTS_TELNO":"033-373-3323","CNTNTS_MENU":"전통곤드레밥","REPRSNT_PERSON_NM":"","CNTNTS_PRKPLCE_AT":"Y","PAY_METHD":"","CNTNTS_URL":"","CNTNTS_TXT":"","LAT":"37.1847455","LNG":"128.4530364","CNTNTS_UPDE":"2012-03-28 22:02:11.0"},{"CNTNTS_AREA":"강원","CNTNTS_AREA2":"영월군","CNTNTS_SN":"1527","CNTNTS_TITLE":"옛날화로숯불구이","TOBIZ_NM":"","CNTNTS_ADRES":"강원도 영월군 영월읍 분수대길 24","CNTNTS_ADRES2":"","CNTNTS_TELNO":"033-373-8592","CNTNTS_MENU":"오리요리,삼겹살","REPRSNT_PERSON_NM":"","CNTNTS_PRKPLCE_AT":"Y","PAY_METHD":"","CNTNTS_URL":"","CNTNTS_TXT":"","LAT":"37.1802891","LNG":"128.4629349","CNTNTS_UPDE":"2012-03-28 22:02:11.0"},{"CNTNTS_AREA":"강원","CNTNTS_AREA2":"영월군","CNTNTS_SN":"1532","CNTNTS_TITLE":"장수마을","TOBIZ_NM":"","CNTNTS_ADRES":"강원도 영월군 영월읍 하송리 160-11","CNTNTS_ADRES2":"","CNTNTS_TELNO":"033-374-1110","CNTNTS_MENU":"염소탕,염소전골","REPRSNT_PERSON_NM":"","CNTNTS_PRKPLCE_AT":"N","PAY_METHD":"","CNTNTS_URL":"","CNTNTS_TXT":"","LAT":"37.1791867","LNG":"128.4629992","CNTNTS_UPDE":"2012-03-28 22:02:11.0"},{"CNTNTS_AREA":"강원","CNTNTS_AREA2":"영월군","CNTNTS_SN":"1537","CNTNTS_TITLE":"풍류관","TOBIZ_NM":"","CNTNTS_ADRES":"강원도 영월군 주천면 서강로 13","CNTNTS_ADRES2":"","CNTNTS_TELNO":"033-372-8851","CNTNTS_MENU":"꺼먹돼지","REPRSNT_PERSON_NM":"","CNTNTS_PRKPLCE_AT":"Y","PAY_METHD":"","CNTNTS_URL":"","CNTNTS_TXT":"","LAT":"37.2696683","LNG":"128.2714334","CNTNTS_UPDE":"2012-03-28 22:02:11.0"},{"CNTNTS_AREA":"강원","CNTNTS_AREA2":"영월군","CNTNTS_SN":"1540","CNTNTS_TITLE":"꽃(flower),차(tea),죽","TOBIZ_NM":"","CNTNTS_ADRES":"강원도 영월군 영월읍 단종로 20","CNTNTS_ADRES2":"","CNTNTS_TELNO":"033-373-7171","CNTNTS_MENU":"죽류","REPRSNT_PERSON_NM":"","CNTNTS_PRKPLCE_AT":"Y","PAY_METHD":"","CNTNTS_URL":"","CNTNTS_TXT":"","LAT":"37.1853057","LNG":"128.4684314","CNTNTS_UPDE":"2012-03-28 22:02:11.0"},{"CNTNTS_AREA":"강원","CNTNTS_AREA2":"영월군","CNTNTS_SN":"1543","CNTNTS_TITLE":"장꼬방","TOBIZ_NM":"","CNTNTS_ADRES":"강원도 영월군 영월읍 하송로 120","CNTNTS_ADRES2":"","CNTNTS_TELNO":"033-373-6262","CNTNTS_MENU":"곤드레다슬기쌈밥","REPRSNT_PERSON_NM":"","CNTNTS_PRKPLCE_AT":"Y","PAY_METHD":"","CNTNTS_URL":"","CNTNTS_TXT":"","LAT":"37.1790798","LNG":"128.4587641","CNTNTS_UPDE":"2012-03-28 22:02:11.0"},{"CNTNTS_AREA":"강원","CNTNTS_AREA2":"영월군","CNTNTS_SN":"1544","CNTNTS_TITLE":"하얀집 풍천장어","TOBIZ_NM":"","CNTNTS_ADRES":"강원도 영월군 영월읍 선돌길 83-9","CNTNTS_ADRES2":"","CNTNTS_TELNO":"033-372-1139","CNTNTS_MENU":"풍천숯불장어구이,토종닭,오리요리","REPRSNT_PERSON_NM":"","CNTNTS_PRKPLCE_AT":"Y","PAY_METHD":"","CNTNTS_URL":"","CNTNTS_TXT":"","LAT":"37.1788018","LNG":"128.4347399","CNTNTS_UPDE":"2012-03-28 22:02:11.0"},{"CNTNTS_AREA":"강원","CNTNTS_AREA2":"영월군","CNTNTS_SN":"1547","CNTNTS_TITLE":"산들바람","TOBIZ_NM":"","CNTNTS_ADRES":"강원도 영월군 남면 별방창원로 1423","CNTNTS_ADRES2":"","CNTNTS_TELNO":"033-372-1589","CNTNTS_MENU":"곤드레밥","REPRSNT_PERSON_NM":"","CNTNTS_PRKPLCE_AT":"Y","PAY_METHD":"","CNTNTS_URL":"","CNTNTS_TXT":"","LAT":"37.1663286","LNG":"128.3750707","CNTNTS_UPDE":"2012-03-28 22:02:11.0"},{"CNTNTS_AREA":"강원","CNTNTS_AREA2":"영월군","CNTNTS_SN":"5489","CNTNTS_TITLE":"성호식당(다슬기항촌)","TOBIZ_NM":"","CNTNTS_ADRES":"강원도 영월군 영월읍 덕포리 502","CNTNTS_ADRES2":"","CNTNTS_TELNO":"033-374-3215","CNTNTS_MENU":"다슬기해장국 7,000원, 다슬기순두부 7,000원, 다슬기비빔밥 7,000원","REPRSNT_PERSON_NM":"","CNTNTS_PRKPLCE_AT":"N","PAY_METHD":"","CNTNTS_URL":"","CNTNTS_TXT":"","LAT":"37.1832055","LNG":"128.4807102","CNTNTS_UPDE":"2012-04-23 09:33:28.0"},{"CNTNTS_AREA":"강원","CNTNTS_AREA2":"영월군","CNTNTS_SN":"4080","CNTNTS_TITLE":"장릉 보리밥집","TOBIZ_NM":"","CNTNTS_ADRES":"강원도 영월군 영월읍 영흥리 1101","CNTNTS_ADRES2":"","CNTNTS_TELNO":"033-374-3986","CNTNTS_MENU":"","REPRSNT_PERSON_NM":"","CNTNTS_PRKPLCE_AT":"","PAY_METHD":"","CNTNTS_URL":"","CNTNTS_TXT":"","LAT":"37.1997143","LNG":"128.4749599","CNTNTS_UPDE":"2012-04-13 22:21:20.0"},{"CNTNTS_AREA":"강원","CNTNTS_AREA2":"영월군","CNTNTS_SN":"4082","CNTNTS_TITLE":"문곡송어횟집","TOBIZ_NM":"","CNTNTS_ADRES":"강원도 영월군 북면 문곡리 898","CNTNTS_ADRES2":"","CNTNTS_TELNO":"033-372-3240, 7797","CNTNTS_MENU":"","REPRSNT_PERSON_NM":"","CNTNTS_PRKPLCE_AT":"","PAY_METHD":"","CNTNTS_URL":"","CNTNTS_TXT":"","LAT":"37.2442734","LNG":"128.4261165","CNTNTS_UPDE":"2012-04-13 22:34:22.0"},{"CNTNTS_AREA":"강원","CNTNTS_AREA2":"영월군","CNTNTS_SN":"4086","CNTNTS_TITLE":"영월 다하누촌","TOBIZ_NM":"","CNTNTS_ADRES":"강원도 영월군 주천면 주천리 1232-3 다하누촌 중앙광장","CNTNTS_ADRES2":"","CNTNTS_TELNO":"1577-5330","CNTNTS_MENU":"","REPRSNT_PERSON_NM":"","CNTNTS_PRKPLCE_AT":"","PAY_METHD":"","CNTNTS_URL":"","CNTNTS_TXT":"","LAT":"0.0","LNG":"0.0","CNTNTS_UPDE":"2012-04-13 22:49:18.0"},{"CNTNTS_AREA":"강원","CNTNTS_AREA2":"영월군","CNTNTS_SN":"4193","CNTNTS_TITLE":"동강다슬기","TOBIZ_NM":"","CNTNTS_ADRES":"강원도 영월군 영월읍 덕포리 497-5","CNTNTS_ADRES2":"","CNTNTS_TELNO":"033-374-2821","CNTNTS_MENU":"","REPRSNT_PERSON_NM":"","CNTNTS_PRKPLCE_AT":"","PAY_METHD":"","CNTNTS_URL":"","CNTNTS_TXT":"","LAT":"37.1826998","LNG":"128.4803173","CNTNTS_UPDE":"2012-04-15 16:32:27.0"},{"CNTNTS_AREA":"강원","CNTNTS_AREA2":"영월군","CNTNTS_SN":"8050","CNTNTS_TITLE":"가마솥보양탕 전문, 태봉식당","TOBIZ_NM":"","CNTNTS_ADRES":"강원도 영월군 주천면 판운리 514-4","CNTNTS_ADRES2":"","CNTNTS_TELNO":"033-375-3957","CNTNTS_MENU":"","REPRSNT_PERSON_NM":"","CNTNTS_PRKPLCE_AT":"","PAY_METHD":"","CNTNTS_URL":"","CNTNTS_TXT":"","LAT":"37.2956824","LNG":"128.3257867","CNTNTS_UPDE":"2012-08-10 23:41:36.0"},{"CNTNTS_AREA":"강원","CNTNTS_AREA2":"영월군","CNTNTS_SN":"8202","CNTNTS_TITLE":"영월 강원토속식당","TOBIZ_NM":"","CNTNTS_ADRES":"강원도 영월군 김삿갓면 진별리","CNTNTS_ADRES2":"","CNTNTS_TELNO":"033-372-9014","CNTNTS_MENU":"","REPRSNT_PERSON_NM":"","CNTNTS_PRKPLCE_AT":"","PAY_METHD":"","CNTNTS_URL":"","CNTNTS_TXT":"","LAT":"37.1451717","LNG":"128.5480228","CNTNTS_UPDE":"2012-10-24 17:40:23.0"},{"CNTNTS_AREA":"강원","CNTNTS_AREA2":"영월군","CNTNTS_SN":"1492","CNTNTS_TITLE":"어라연송어장횟집","TOBIZ_NM":"","CNTNTS_ADRES":"강원도 영월군 영월읍 동강로 955","CNTNTS_ADRES2":"","CNTNTS_TELNO":"033-375-4242","CNTNTS_MENU":"송어회","REPRSNT_PERSON_NM":"","CNTNTS_PRKPLCE_AT":"Y","PAY_METHD":"","CNTNTS_URL":"","CNTNTS_TXT":"","LAT":"37.2420039","LNG":"128.5130551","CNTNTS_UPDE":"2013-07-03 11:14:23.0"},{"CNTNTS_AREA":"강원","CNTNTS_AREA2":"영월군","CNTNTS_SN":"1499","CNTNTS_TITLE":"홍이네식당","TOBIZ_NM":"","CNTNTS_ADRES":"강원도 영월군 북면 봉래산로 972","CNTNTS_ADRES2":"","CNTNTS_TELNO":"033-372-2522","CNTNTS_MENU":"쭈꾸미삽겹살","REPRSNT_PERSON_NM":"","CNTNTS_PRKPLCE_AT":"Y","PAY_METHD":"","CNTNTS_URL":"","CNTNTS_TXT":"","LAT":"37.2542799","LNG":"128.4569188","CNTNTS_UPDE":"2013-07-03 13:33:34.0"},{"CNTNTS_AREA":"강원","CNTNTS_AREA2":"영월군","CNTNTS_SN":"1501","CNTNTS_TITLE":"삼정숯불갈비","TOBIZ_NM":"","CNTNTS_ADRES":"강원 영월군 영월읍 하송로 120","CNTNTS_ADRES2":"","CNTNTS_TELNO":"033-373-2121","CNTNTS_MENU":"갈비, 삼겹살","REPRSNT_PERSON_NM":"","CNTNTS_PRKPLCE_AT":"Y","PAY_METHD":"","CNTNTS_URL":"","CNTNTS_TXT":"","LAT":"37.1790798","LNG":"128.4587641","CNTNTS_UPDE":"2013-07-03 14:39:16.0"},{"CNTNTS_AREA":"강원","CNTNTS_AREA2":"영월군","CNTNTS_SN":"1503","CNTNTS_TITLE":"동강오리촌","TOBIZ_NM":"","CNTNTS_ADRES":"강원도 영월군 영월읍 단종로16번길 40","CNTNTS_ADRES2":"","CNTNTS_TELNO":"033-375-3939","CNTNTS_MENU":"오리구이","REPRSNT_PERSON_NM":"","CNTNTS_PRKPLCE_AT":"Y","PAY_METHD":"","CNTNTS_URL":"","CNTNTS_TXT":"","LAT":"37.1848645","LNG":"128.4703883","CNTNTS_UPDE":"2013-07-03 15:01:50.0"},{"CNTNTS_AREA":"강원","CNTNTS_AREA2":"영월군","CNTNTS_SN":"1505","CNTNTS_TITLE":"영월동강한우타운","TOBIZ_NM":"","CNTNTS_ADRES":"강원도 영월군 영월읍 중앙1로 12","CNTNTS_ADRES2":"","CNTNTS_TELNO":"033-372-1550","CNTNTS_MENU":"한우등심","REPRSNT_PERSON_NM":"","CNTNTS_PRKPLCE_AT":"N","PAY_METHD":"","CNTNTS_URL":"","CNTNTS_TXT":"","LAT":"37.1821535","LNG":"128.4661628","CNTNTS_UPDE":"2013-07-03 16:13:52.0"},{"CNTNTS_AREA":"강원","CNTNTS_AREA2":"영월군","CNTNTS_SN":"15424","CNTNTS_TITLE":"샛별식당","TOBIZ_NM":"","CNTNTS_ADRES":"강원도 영월군 영월읍 중앙로 125","CNTNTS_ADRES2":"","CNTNTS_TELNO":"033-374-5395","CNTNTS_MENU":"","REPRSNT_PERSON_NM":"","CNTNTS_PRKPLCE_AT":"","PAY_METHD":"","CNTNTS_URL":"","CNTNTS_TXT":"","LAT":"37.1811037","LNG":"128.4765671","CNTNTS_UPDE":"2013-09-26 13:44:24.0"},{"CNTNTS_AREA":"강원","CNTNTS_AREA2":"영월군","CNTNTS_SN":"1494","CNTNTS_TITLE":"설원칡냉면","TOBIZ_NM":"","CNTNTS_ADRES":"강원도 영월군 영월읍  중앙로 86","CNTNTS_ADRES2":"","CNTNTS_TELNO":"033-375-8787","CNTNTS_MENU":"설원칡냉면,물냉면,평양왕만두","REPRSNT_PERSON_NM":"","CNTNTS_PRKPLCE_AT":"Y","PAY_METHD":"","CNTNTS_URL":"http:\/\/www.icehappy.com\/","CNTNTS_TXT":"","LAT":"37.1831917","LNG":"128.4734109","CNTNTS_UPDE":"2013-07-03 11:41:13.0"},{"CNTNTS_AREA":"강원","CNTNTS_AREA2":"영월군","CNTNTS_SN":"1496","CNTNTS_TITLE":"무릉송어장횟집","TOBIZ_NM":"","CNTNTS_ADRES":"강원도 영월군 수주면 아래골길 20-3","CNTNTS_ADRES2":"","CNTNTS_TELNO":"033-372-8388","CNTNTS_MENU":"송어회,철갑상어회","REPRSNT_PERSON_NM":"","CNTNTS_PRKPLCE_AT":"N","PAY_METHD":"","CNTNTS_URL":"","CNTNTS_TXT":"","LAT":"37.293412","LNG":"128.2771784","CNTNTS_UPDE":"2013-07-03 13:10:54.0"},{"CNTNTS_AREA":"강원","CNTNTS_AREA2":"영월군","CNTNTS_SN":"17518","CNTNTS_TITLE":"엄니밥상","TOBIZ_NM":"","CNTNTS_ADRES":"한국 강원도 영월군 주천면 도천길 18","CNTNTS_ADRES2":"","CNTNTS_TELNO":"033-372-5840","CNTNTS_MENU":"","REPRSNT_PERSON_NM":"","CNTNTS_PRKPLCE_AT":"N","PAY_METHD":"","CNTNTS_URL":"","CNTNTS_TXT":"","LAT":"37.2710706","LNG":"128.2657894","CNTNTS_UPDE":"2013-11-21 15:30:01.0"},{"CNTNTS_AREA":"강원","CNTNTS_AREA2":"영월군","CNTNTS_SN":"17515","CNTNTS_TITLE":"고씨굴대영매운탕","TOBIZ_NM":"","CNTNTS_ADRES":"강원도 영월군 김삿갓면 영월동로 1131-40","CNTNTS_ADRES2":"","CNTNTS_TELNO":"033-372-2989","CNTNTS_MENU":"쏘가리매운탕,","REPRSNT_PERSON_NM":"","CNTNTS_PRKPLCE_AT":"N","PAY_METHD":"","CNTNTS_URL":"","CNTNTS_TXT":"","LAT":"37.1301055","LNG":"128.5364273","CNTNTS_UPDE":"2013-11-21 15:03:16.0"},{"CNTNTS_AREA":"강원","CNTNTS_AREA2":"영월군","CNTNTS_SN":"17517","CNTNTS_TITLE":"명성식당","TOBIZ_NM":"","CNTNTS_ADRES":"강원도 영월군 남면 서강로 1871","CNTNTS_ADRES2":"","CNTNTS_TELNO":"033-375-0607","CNTNTS_MENU":"잡어매운탕, 빠가매운탕, 감자탕, 갈비찜 등등","REPRSNT_PERSON_NM":"","CNTNTS_PRKPLCE_AT":"N","PAY_METHD":"","CNTNTS_URL":"","CNTNTS_TXT":"","LAT":"37.1984053","LNG":"128.4029912","CNTNTS_UPDE":"2013-11-21 15:19:37.0"},{"CNTNTS_AREA":"강원","CNTNTS_AREA2":"영월군","CNTNTS_SN":"17520","CNTNTS_TITLE":"청산회관","TOBIZ_NM":"","CNTNTS_ADRES":"한국 강원도 영월군 영월읍 중앙로 46","CNTNTS_ADRES2":"","CNTNTS_TELNO":"033-374-2141","CNTNTS_MENU":"곤드레밥, 버섯전골, 불고기백반","REPRSNT_PERSON_NM":"","CNTNTS_PRKPLCE_AT":"N","PAY_METHD":"","CNTNTS_URL":"","CNTNTS_TXT":"","LAT":"37.1833656","LNG":"128.4686525","CNTNTS_UPDE":"2013-11-21 15:36:57.0"},{"CNTNTS_AREA":"강원","CNTNTS_AREA2":"영월군","CNTNTS_SN":"17522","CNTNTS_TITLE":"초성가든","TOBIZ_NM":"","CNTNTS_ADRES":"한국 강원도 영월군 김삿갓면 영월동로 1131-25","CNTNTS_ADRES2":"","CNTNTS_TELNO":"033-372-2356","CNTNTS_MENU":"매기매운탕, 잡어매운탕,","REPRSNT_PERSON_NM":"","CNTNTS_PRKPLCE_AT":"N","PAY_METHD":"","CNTNTS_URL":"","CNTNTS_TXT":"","LAT":"37.1299708","LNG":"128.5359098","CNTNTS_UPDE":"2013-11-21 15:53:24.0"},{"CNTNTS_AREA":"강원","CNTNTS_AREA2":"영월군","CNTNTS_SN":"1510","CNTNTS_TITLE":"물레방아쉼터","TOBIZ_NM":"","CNTNTS_ADRES":"강원도 영월군 영월읍 정양리 175","CNTNTS_ADRES2":"","CNTNTS_TELNO":"033-374-1188","CNTNTS_MENU":"쏘가리회,민물매운탕","REPRSNT_PERSON_NM":"","CNTNTS_PRKPLCE_AT":"N","PAY_METHD":"","CNTNTS_URL":"","CNTNTS_TXT":"","LAT":"37.1596117","LNG":"128.5250211","CNTNTS_UPDE":"2015-03-18 11:06:50.0"},{"CNTNTS_AREA":"강원","CNTNTS_AREA2":"영월군","CNTNTS_SN":"28687","CNTNTS_TITLE":"초원식당","TOBIZ_NM":"","CNTNTS_ADRES":"강원도 영월군 북면 마차리 1163-1","CNTNTS_ADRES2":"","CNTNTS_TELNO":"033-372-0906","CNTNTS_MENU":"","REPRSNT_PERSON_NM":"","CNTNTS_PRKPLCE_AT":"N","PAY_METHD":"","CNTNTS_URL":"","CNTNTS_TXT":"","LAT":"37.2565093","LNG":"128.4564284","CNTNTS_UPDE":"2015-04-20 23:35:51.0"}]}